"ID","Name","Is_Closed","URL","Review_Count","Categories","Rating","Latitude","Longitude","Price","Address"
"GqZ-GeXPr5m-58h5RBwQvw","Prairie House Food & Spirits","FALSE","https://www.yelp.com/biz/prairie-house-food-and-spirits-prairie-du-sac?adjust_creative=QNZpjiWMh-xtTiixb79gYw&utm_campaign=yelp_api_v3&utm_medium=api_v3_business_search&utm_source=QNZpjiWMh-xtTiixb79gYw","20","American (Traditional) | Breakfast & Brunch | Pizza","3.5","43.2934858","-89.74459","$$","1920 Prairie St"
"avvlk7c_lAs9ti6eYpRNFA","Eagle Inn - Sauk Prairie","FALSE","https://www.yelp.com/biz/eagle-inn-sauk-prairie-prairie-du-sac?adjust_creative=QNZpjiWMh-xtTiixb79gYw&utm_campaign=yelp_api_v3&utm_medium=api_v3_business_search&utm_source=QNZpjiWMh-xtTiixb79gYw","26","Breakfast & Brunch | American (Traditional)","3.5","43.292556","-89.722726","$","655 Water St"
"CAbvaSyOEsorzopTIx16fg","A&W Restaurant","FALSE","https://www.yelp.com/biz/a-and-w-restaurant-de-forest?adjust_creative=QNZpjiWMh-xtTiixb79gYw&utm_campaign=yelp_api_v3&utm_medium=api_v3_business_search&utm_source=QNZpjiWMh-xtTiixb79gYw","2","Fast Food","3","43.2502676546574","-89.3735895305872","$","4905 County Hwy V"
"AjqPcplQ5bw25teVwoNJPA","Phillips 66-Arbys","FALSE","https://www.yelp.com/biz/phillips-66-arbys-de-forest?adjust_creative=QNZpjiWMh-xtTiixb79gYw&utm_campaign=yelp_api_v3&utm_medium=api_v3_business_search&utm_source=QNZpjiWMh-xtTiixb79gYw","2","Fast Food | Sandwiches","2.5","43.2755608","-89.362933","","4884 County Rd Dm"
"Qu-akC62bOxMq3yFHeGwRg","Subway","FALSE","https://www.yelp.com/biz/subway-sauk-city?adjust_creative=QNZpjiWMh-xtTiixb79gYw&utm_campaign=yelp_api_v3&utm_medium=api_v3_business_search&utm_source=QNZpjiWMh-xtTiixb79gYw","1","Sandwiches | Fast Food","1","43.2713584899902","-89.7367706298828","$","829 Phillips Blvd"
"9CADXU8Tj-TzW44SiWvaug","Wood BBQ","FALSE","https://www.yelp.com/biz/wood-bbq-sauk-city-2?adjust_creative=QNZpjiWMh-xtTiixb79gYw&utm_campaign=yelp_api_v3&utm_medium=api_v3_business_search&utm_source=QNZpjiWMh-xtTiixb79gYw","52","Barbeque","4.5","43.27146","-89.73223","$$","739 Phillips Blvd"
"Sc8qRvkzgyV0peWhwRPqFg","No 1 Kitchen","FALSE","https://www.yelp.com/biz/no-1-kitchen-sauk-city?adjust_creative=QNZpjiWMh-xtTiixb79gYw&utm_campaign=yelp_api_v3&utm_medium=api_v3_business_search&utm_source=QNZpjiWMh-xtTiixb79gYw","6","Chinese","3","43.2716674804688","-89.7258834838867","$","815 Madison St"
"zu6Exd954JzOxxrCCIqeMQ","Culver's","FALSE","https://www.yelp.com/biz/culvers-sauk-city?adjust_creative=QNZpjiWMh-xtTiixb79gYw&utm_campaign=yelp_api_v3&utm_medium=api_v3_business_search&utm_source=QNZpjiWMh-xtTiixb79gYw","14","Fast Food | Burgers","4","43.2708","-89.72985","$","716 Phillips Blvd"
"TVUufWPO1LCmij8VjZufkw","McDonald's","FALSE","https://www.yelp.com/biz/mcdonalds-sauk-city?adjust_creative=QNZpjiWMh-xtTiixb79gYw&utm_campaign=yelp_api_v3&utm_medium=api_v3_business_search&utm_source=QNZpjiWMh-xtTiixb79gYw","5","Burgers | Fast Food | Coffee & Tea","2","43.27162","-89.73093","$","727 US Hwy 12 Phillips Blvd"
"LwApwrStARNn40Ymy1OBkw","Milio's Sandwiches","FALSE","https://www.yelp.com/biz/milios-sandwiches-sauk-city?adjust_creative=QNZpjiWMh-xtTiixb79gYw&utm_campaign=yelp_api_v3&utm_medium=api_v3_business_search&utm_source=QNZpjiWMh-xtTiixb79gYw","3","Sandwiches","3.5","43.27093","-89.72647","","410 Phillips Blvd"
"nrWDEmt1PzPV97o4cjKyqw","Pizza Hut","FALSE","https://www.yelp.com/biz/pizza-hut-sauk-city?adjust_creative=QNZpjiWMh-xtTiixb79gYw&utm_campaign=yelp_api_v3&utm_medium=api_v3_business_search&utm_source=QNZpjiWMh-xtTiixb79gYw","8","Italian | Pizza | Chicken Wings","3","43.2710761376439","-89.7343993432388","","825 Phillips Blvd"
"xXx73HKNi9dqkEYx8eSAQg","Vintage Brewing","FALSE","https://www.yelp.com/biz/vintage-brewing-sauk-city-2?adjust_creative=QNZpjiWMh-xtTiixb79gYw&utm_campaign=yelp_api_v3&utm_medium=api_v3_business_search&utm_source=QNZpjiWMh-xtTiixb79gYw","20","Brewpubs | Burgers | Sandwiches","3.5","43.2740084483252","-89.7208303600144","$$","600 Water St"
"KhoYfLSeGaiAD-nXPeOhkQ","Riviera Bowl & Pizzeria","FALSE","https://www.yelp.com/biz/riviera-bowl-and-pizzeria-sauk-city?adjust_creative=QNZpjiWMh-xtTiixb79gYw&utm_campaign=yelp_api_v3&utm_medium=api_v3_business_search&utm_source=QNZpjiWMh-xtTiixb79gYw","13","Bowling | American (Traditional)","4.5","43.2743602519673","-89.719426684178","","51 Polk St"
"YpVnGFoWJG2-atnAAuBoNw","Easy Landing","FALSE","https://www.yelp.com/biz/easy-landing-marshall?adjust_creative=QNZpjiWMh-xtTiixb79gYw&utm_campaign=yelp_api_v3&utm_medium=api_v3_business_search&utm_source=QNZpjiWMh-xtTiixb79gYw","2","American (Traditional)","4","43.267951965332","-89.0680465698242","","7652 State Road 73"
"LqhGOK8p0IZx7TzkFF_N4A","Green Acres","FALSE","https://www.yelp.com/biz/green-acres-sauk-city?adjust_creative=QNZpjiWMh-xtTiixb79gYw&utm_campaign=yelp_api_v3&utm_medium=api_v3_business_search&utm_source=QNZpjiWMh-xtTiixb79gYw","40","Seafood | Steakhouses","4","43.2640012","-89.7159461","$$","7438 State Road 78"
"CFGlcwlg-l-tIuJ_F58AxA","Dorf Haus Supper Club","FALSE","https://www.yelp.com/biz/dorf-haus-supper-club-sauk-city-2?adjust_creative=QNZpjiWMh-xtTiixb79gYw&utm_campaign=yelp_api_v3&utm_medium=api_v3_business_search&utm_source=QNZpjiWMh-xtTiixb79gYw","52","American (Traditional) | German | Bars","4","43.24908","-89.67658","$$","8931 County Rd Y"
"29uk0fZJAWdSQhWhasYI9A","Tootsie's Tap","FALSE","https://www.yelp.com/biz/tootsies-tap-dane?adjust_creative=QNZpjiWMh-xtTiixb79gYw&utm_campaign=yelp_api_v3&utm_medium=api_v3_business_search&utm_source=QNZpjiWMh-xtTiixb79gYw","9","Bars | American (Traditional) | Pool Halls","5","43.2501984","-89.4998474","$","115 E Main St"
"M5y2FZKG9fA0OIDIjajaVQ","Mickey D's Corner Bar","FALSE","https://www.yelp.com/biz/mickey-ds-corner-bar-dane?adjust_creative=QNZpjiWMh-xtTiixb79gYw&utm_campaign=yelp_api_v3&utm_medium=api_v3_business_search&utm_source=QNZpjiWMh-xtTiixb79gYw","3","American (Traditional) | Breakfast & Brunch","5","43.25214","-89.49978","$","102 Dane St"
"c_-0jkr-MkK2EdlbJaXgyw","Willy Street Co-op","FALSE","https://www.yelp.com/biz/willy-street-co-op-madison-6?adjust_creative=QNZpjiWMh-xtTiixb79gYw&utm_campaign=yelp_api_v3&utm_medium=api_v3_business_search&utm_source=QNZpjiWMh-xtTiixb79gYw","12","Grocery | Delis | Juice Bars & Smoothies","4.5","43.1276538223028","-89.3634970486164","$$","2817 N Sherman Ave"
"8u6wAMmTMdJskMGLYo-5Iw","Culver's","FALSE","https://www.yelp.com/biz/culvers-deforest?adjust_creative=QNZpjiWMh-xtTiixb79gYw&utm_campaign=yelp_api_v3&utm_medium=api_v3_business_search&utm_source=QNZpjiWMh-xtTiixb79gYw","21","Ice Cream & Frozen Yogurt | Fast Food | Burgers","4","43.25104","-89.37498","$","4910 Cnty Rd V"
"9z7Nlp24nc4nUbtaQDKOAQ","Burger King","FALSE","https://www.yelp.com/biz/burger-king-de-forest?adjust_creative=QNZpjiWMh-xtTiixb79gYw&utm_campaign=yelp_api_v3&utm_medium=api_v3_business_search&utm_source=QNZpjiWMh-xtTiixb79gYw","1","Burgers | Fast Food","5","43.2467117","-89.3745499","","105 Evco Cir"
"ewsYllWspvnP8aP0C4ctLQ","McDonald's","FALSE","https://www.yelp.com/biz/mcdonalds-deforest?adjust_creative=QNZpjiWMh-xtTiixb79gYw&utm_campaign=yelp_api_v3&utm_medium=api_v3_business_search&utm_source=QNZpjiWMh-xtTiixb79gYw","8","Burgers | Fast Food | Coffee & Tea","1.5","43.2498818862492","-89.3754141032696","$","981 W North St"
"cRx3YlYMEp42Dlo347vC1g","All Stop Deforest","FALSE","https://www.yelp.com/biz/all-stop-deforest-de-forest?adjust_creative=QNZpjiWMh-xtTiixb79gYw&utm_campaign=yelp_api_v3&utm_medium=api_v3_business_search&utm_source=QNZpjiWMh-xtTiixb79gYw","4","Pizza | American (New)","2","43.2498589","-89.3740768","$$","4905 County Hwy V"
"GQOvHuqaFMLZQ1-EfFEJnw","Arby's","FALSE","https://www.yelp.com/biz/arbys-de-forest?adjust_creative=QNZpjiWMh-xtTiixb79gYw&utm_campaign=yelp_api_v3&utm_medium=api_v3_business_search&utm_source=QNZpjiWMh-xtTiixb79gYw","8","Fast Food | Sandwiches","2","43.2506216806295","-89.3729346180475","$","4884 County Hwy V"
"E0NTkeCOSaEK6oqGTttJTA","Subway","FALSE","https://www.yelp.com/biz/subway-de-forest?adjust_creative=QNZpjiWMh-xtTiixb79gYw&utm_campaign=yelp_api_v3&utm_medium=api_v3_business_search&utm_source=QNZpjiWMh-xtTiixb79gYw","1","Sandwiches | Fast Food","5","43.2502472","-89.3719824","$","4867 County Hwy V"
"56731_C-5MmSxdCtNnhUDw","Taco Bell","FALSE","https://www.yelp.com/biz/taco-bell-de-forest-3?adjust_creative=QNZpjiWMh-xtTiixb79gYw&utm_campaign=yelp_api_v3&utm_medium=api_v3_business_search&utm_source=QNZpjiWMh-xtTiixb79gYw","7","Tex-Mex | Fast Food | Mexican","3.5","43.25049","-89.36915","$","4866 County Highway V"
"eRIgaUA3JFOxKXKH4mvshQ","Norske Nook Restaurant & Bakery","FALSE","https://www.yelp.com/biz/norske-nook-restaurant-and-bakery-deforest?adjust_creative=QNZpjiWMh-xtTiixb79gYw&utm_campaign=yelp_api_v3&utm_medium=api_v3_business_search&utm_source=QNZpjiWMh-xtTiixb79gYw","97","Desserts | Comfort Food","3","43.2479515075684","-89.3435592651367","$$","100 East Holum St"
"XE97VxjZoRxV6IM05grY0g","Sizzling Hut","FALSE","https://www.yelp.com/biz/sizzling-hut-deforest-2?adjust_creative=QNZpjiWMh-xtTiixb79gYw&utm_campaign=yelp_api_v3&utm_medium=api_v3_business_search&utm_source=QNZpjiWMh-xtTiixb79gYw","21","Szechuan","4.5","43.2510066","-89.3439362","$$","404 N Main St"
"Lj4QPvC27y4cLa3w9szkGA","Deforest Family Restaurant","FALSE","https://www.yelp.com/biz/deforest-family-restaurant-de-forest?adjust_creative=QNZpjiWMh-xtTiixb79gYw&utm_campaign=yelp_api_v3&utm_medium=api_v3_business_search&utm_source=QNZpjiWMh-xtTiixb79gYw","42","American (Traditional)","3.5","43.2522735595703","-89.3533325195312","$","505 W North St"
"dVW4ToH3BThag6IdsqGVEQ","Landmark","FALSE","https://www.yelp.com/biz/landmark-de-forest?adjust_creative=QNZpjiWMh-xtTiixb79gYw&utm_campaign=yelp_api_v3&utm_medium=api_v3_business_search&utm_source=QNZpjiWMh-xtTiixb79gYw","4","Bars | Diners","2","43.2473335266113","-89.3440704345703","","100 S Main St"
"Cs7Zny0ijnyE9nZWSLBnAg","Toast","FALSE","https://www.yelp.com/biz/toast-madison-4?adjust_creative=QNZpjiWMh-xtTiixb79gYw&utm_campaign=yelp_api_v3&utm_medium=api_v3_business_search&utm_source=QNZpjiWMh-xtTiixb79gYw","21","Food Trucks | Sandwiches | Caterers","4","43.0749349661355","-89.398405","$","728 State St"
"KVl4dENvlYN4JmakD0gATQ","Freeman Brothers BBQ","FALSE","https://www.yelp.com/biz/freeman-brothers-bbq-verona?adjust_creative=QNZpjiWMh-xtTiixb79gYw&utm_campaign=yelp_api_v3&utm_medium=api_v3_business_search&utm_source=QNZpjiWMh-xtTiixb79gYw","1","Food Trucks | Barbeque","5","42.9876937866211","-89.5347747802734","",""
"AhYG10mP_LOHePr_SC4Peg","BB Jack's","FALSE","https://www.yelp.com/biz/bb-jacks-deforest-3?adjust_creative=QNZpjiWMh-xtTiixb79gYw&utm_campaign=yelp_api_v3&utm_medium=api_v3_business_search&utm_source=QNZpjiWMh-xtTiixb79gYw","43","Pizza | American (Traditional) | Pubs","3.5","43.247959","-89.339923","$$","300 E Holum St"
"W1cboNmS6QWJHJBq3Kbx3g","North Bristol Sportsman's Club","FALSE","https://www.yelp.com/biz/north-bristol-sportsmans-club-sun-prairie?adjust_creative=QNZpjiWMh-xtTiixb79gYw&utm_campaign=yelp_api_v3&utm_medium=api_v3_business_search&utm_source=QNZpjiWMh-xtTiixb79gYw","4","American (New)","5","43.24706","-89.12953","","7229 N Greenway Rd"
"6Z9cYpKyEaNKakCcA3ZM_A","Club 51","FALSE","https://www.yelp.com/biz/club-51-de-forest?adjust_creative=QNZpjiWMh-xtTiixb79gYw&utm_campaign=yelp_api_v3&utm_medium=api_v3_business_search&utm_source=QNZpjiWMh-xtTiixb79gYw","2","Sports Bars | American (Traditional)","4","43.2378","-89.3243","$","7123 North Towne Rd"
"MuGSFckqsMI7mSZwTvsHhg","Papino's Italian Restaurant","FALSE","https://www.yelp.com/biz/papinos-italian-restaurant-windsor?adjust_creative=QNZpjiWMh-xtTiixb79gYw&utm_campaign=yelp_api_v3&utm_medium=api_v3_business_search&utm_source=QNZpjiWMh-xtTiixb79gYw","30","Italian | Pizza","3.5","43.2133742","-89.3458236","$$","6601 Traveler Trl"
"_dcX-gXs3VxTBmURWdnTOw","Buck & Honeys","FALSE","https://www.yelp.com/biz/buck-and-honeys-sun-prairie?adjust_creative=QNZpjiWMh-xtTiixb79gYw&utm_campaign=yelp_api_v3&utm_medium=api_v3_business_search&utm_source=QNZpjiWMh-xtTiixb79gYw","170","Wine Bars | American (Traditional)","3.5","43.1994537233009","-89.226147999621","$$","804 Liberty Blvd"
"EU-z7T0jpBpL_XnraQLfWw","Big Apple Bagels","FALSE","https://www.yelp.com/biz/big-apple-bagels-sun-prairie-2?adjust_creative=QNZpjiWMh-xtTiixb79gYw&utm_campaign=yelp_api_v3&utm_medium=api_v3_business_search&utm_source=QNZpjiWMh-xtTiixb79gYw","7","Breakfast & Brunch | Bagels | Delis","3","43.20047","-89.22647","$","1354 N Bird St"
"Z5TMiCHOGC7HtS-3gO-DOA","Whippoorwill/Hawks Nest","FALSE","https://www.yelp.com/biz/whippoorwill-hawks-nest-dane?adjust_creative=QNZpjiWMh-xtTiixb79gYw&utm_campaign=yelp_api_v3&utm_medium=api_v3_business_search&utm_source=QNZpjiWMh-xtTiixb79gYw","7","American (Traditional)","4.5","43.191951751709","-89.6006393432617","$","7914 State Rd 19"
"PWojavffC1WGdmiFCE19vA","Mr. Brews Taphouse","FALSE","https://www.yelp.com/biz/mr-brews-taphouse-waunakee-2?adjust_creative=QNZpjiWMh-xtTiixb79gYw&utm_campaign=yelp_api_v3&utm_medium=api_v3_business_search&utm_source=QNZpjiWMh-xtTiixb79gYw","33","Burgers | Beer, Wine & Spirits","3.5","43.193203441251","-89.4612739607692","$$","300 N Century Ave"
"4ZalERS8GVHK_1ULa86rMQ","Rex's Innkeeper","FALSE","https://www.yelp.com/biz/rexs-innkeeper-waunakee?adjust_creative=QNZpjiWMh-xtTiixb79gYw&utm_campaign=yelp_api_v3&utm_medium=api_v3_business_search&utm_source=QNZpjiWMh-xtTiixb79gYw","30","Seafood | Steakhouses | American (Traditional)","3","43.1944274902344","-89.4623718261719","$$","301 N Century Ave"
"wfsCX4M-uf_l-hQA1sSWyQ","M-N-M's Coffeehouse","FALSE","https://www.yelp.com/biz/m-n-ms-coffeehouse-waunakee?adjust_creative=QNZpjiWMh-xtTiixb79gYw&utm_campaign=yelp_api_v3&utm_medium=api_v3_business_search&utm_source=QNZpjiWMh-xtTiixb79gYw","34","Sandwiches | Coffee & Tea | Ice Cream & Frozen Yogurt","4.5","43.192395","-89.463177","$","509 W Main St"
"u8CFMZ9rCMDvKGDyqt6MEQ","Cuco's Mexican Restaurant","FALSE","https://www.yelp.com/biz/cucos-mexican-restaurant-waunakee?adjust_creative=QNZpjiWMh-xtTiixb79gYw&utm_campaign=yelp_api_v3&utm_medium=api_v3_business_search&utm_source=QNZpjiWMh-xtTiixb79gYw","33","Mexican","2.5","43.19427","-89.46121","$$","350 N Century Ave"
"7-OCdlOQQCHAqYDI_elK6Q","Doughboys Pizza","FALSE","https://www.yelp.com/biz/doughboys-pizza-waunakee?adjust_creative=QNZpjiWMh-xtTiixb79gYw&utm_campaign=yelp_api_v3&utm_medium=api_v3_business_search&utm_source=QNZpjiWMh-xtTiixb79gYw","31","Pizza","3.5","43.19361","-89.46121","$","246 N Century Ave"
"t67GMPZ0cv_ItKlID-JFiQ","Banzo","FALSE","https://www.yelp.com/biz/banzo-madison?adjust_creative=QNZpjiWMh-xtTiixb79gYw&utm_campaign=yelp_api_v3&utm_medium=api_v3_business_search&utm_source=QNZpjiWMh-xtTiixb79gYw","311","Mediterranean | Food Trucks","4.5","43.1016722348811","-89.364595413208","$","2105 Sherman Ave"
"AlaQkBtE8iXEP7qwrR5_Gw","Milio's Sandwiches","FALSE","https://www.yelp.com/biz/milios-sandwiches-waunakee?adjust_creative=QNZpjiWMh-xtTiixb79gYw&utm_campaign=yelp_api_v3&utm_medium=api_v3_business_search&utm_source=QNZpjiWMh-xtTiixb79gYw","4","Sandwiches","4","43.19361","-89.46121","$$","242 N Century Ave"
"2BKcHO7WQ0iGke6EBs_Dsg","Taco Bell","FALSE","https://www.yelp.com/biz/taco-bell-waunakee-3?adjust_creative=QNZpjiWMh-xtTiixb79gYw&utm_campaign=yelp_api_v3&utm_medium=api_v3_business_search&utm_source=QNZpjiWMh-xtTiixb79gYw","6","Fast Food | Mexican | Tex-Mex","2","43.19204","-89.46344","$","600 W. Main Street"
"4BfmLcy9iMJSsFFKzyIfKQ","Pizza Hut","FALSE","https://www.yelp.com/biz/pizza-hut-waunakee?adjust_creative=QNZpjiWMh-xtTiixb79gYw&utm_campaign=yelp_api_v3&utm_medium=api_v3_business_search&utm_source=QNZpjiWMh-xtTiixb79gYw","8","Pizza | Italian | Chicken Wings","2","43.1936968","-89.4617636","$","300 N Century Ave"
"V80NaT5ZnfuA31yW3Y5Pdg","El Grito Taqueria","FALSE","https://www.yelp.com/biz/el-grito-taqueria-madison?adjust_creative=QNZpjiWMh-xtTiixb79gYw&utm_campaign=yelp_api_v3&utm_medium=api_v3_business_search&utm_source=QNZpjiWMh-xtTiixb79gYw","24","Food Trucks | Mexican | Caterers","5","43.0747316","-89.3862126","$","50 State St"
"4y8KM5Hq0HOm6M0w7O-m4g","Madison Food Explorers","FALSE","https://www.yelp.com/biz/madison-food-explorers-madison?adjust_creative=QNZpjiWMh-xtTiixb79gYw&utm_campaign=yelp_api_v3&utm_medium=api_v3_business_search&utm_source=QNZpjiWMh-xtTiixb79gYw","13","American (Traditional) | Bakeries | Tours","5","43.0716921184424","-89.3809596057703","$$$","2406 Upham St"
"ovB8CTMCU6RTB9xTrOT_kA","Leia's Lunchbox","FALSE","https://www.yelp.com/biz/leias-lunchbox-madison?adjust_creative=QNZpjiWMh-xtTiixb79gYw&utm_campaign=yelp_api_v3&utm_medium=api_v3_business_search&utm_source=QNZpjiWMh-xtTiixb79gYw","3","Burgers | Food Trucks | Sandwiches","5","43.0747680664063","-89.3882827758789","",""
"-ga9DRU4HE6Li9_tWH3_Fg","McDonald's","FALSE","https://www.yelp.com/biz/mcdonalds-waunakee?adjust_creative=QNZpjiWMh-xtTiixb79gYw&utm_campaign=yelp_api_v3&utm_medium=api_v3_business_search&utm_source=QNZpjiWMh-xtTiixb79gYw","3","Fast Food | Coffee & Tea | Burgers","2.5","43.19236","-89.46623","","651 W Main St"
"uNpqQEz9tE5TertGlQCBsA","Cafe Costa Rica","FALSE","https://www.yelp.com/biz/cafe-costa-rica-madison-4?adjust_creative=QNZpjiWMh-xtTiixb79gYw&utm_campaign=yelp_api_v3&utm_medium=api_v3_business_search&utm_source=QNZpjiWMh-xtTiixb79gYw","3","Food Trucks | Latin American | Caribbean","4.5","43.0748397822723","-89.3976026773453","$","731 State St"
"4Cj7zLIU47UY21yjdBGdtQ","A&W Restaurant","FALSE","https://www.yelp.com/biz/a-and-w-restaurant-windsor?adjust_creative=QNZpjiWMh-xtTiixb79gYw&utm_campaign=yelp_api_v3&utm_medium=api_v3_business_search&utm_source=QNZpjiWMh-xtTiixb79gYw","20","Burgers | Fast Food","4","43.1955299377441","-89.3441848754883","$","4505 Lake Cir"
"0ctFHE8o7A0_oDnaW7WrsA","The Rodeside Grill","FALSE","https://www.yelp.com/biz/the-rodeside-grill-windsor?adjust_creative=QNZpjiWMh-xtTiixb79gYw&utm_campaign=yelp_api_v3&utm_medium=api_v3_business_search&utm_source=QNZpjiWMh-xtTiixb79gYw","56","American (Traditional)","4","43.1935806274414","-89.3396301269531","$$","6317 Rostad Cir"
"EtE2sqkrwoYAU-8mef0UOg","Subway","FALSE","https://www.yelp.com/biz/subway-deforest-2?adjust_creative=QNZpjiWMh-xtTiixb79gYw&utm_campaign=yelp_api_v3&utm_medium=api_v3_business_search&utm_source=QNZpjiWMh-xtTiixb79gYw","3","Fast Food | Sandwiches","4","43.194016","-89.339025","$","6321 Rostad Cir"
"qEWoqy5LGDsdr22R3Px8Pg","McDonald's","FALSE","https://www.yelp.com/biz/mcdonalds-windsor?adjust_creative=QNZpjiWMh-xtTiixb79gYw&utm_campaign=yelp_api_v3&utm_medium=api_v3_business_search&utm_source=QNZpjiWMh-xtTiixb79gYw","5","Burgers | Fast Food | Coffee & Tea","3.5","43.194095","-89.337453","$","4409 Hwy 19"
"UxXWkSy6Kzgbhy5hU9gXrA","Falbo Bros. Pizzeria","FALSE","https://www.yelp.com/biz/falbo-bros-pizzeria-sun-prairie-2?adjust_creative=QNZpjiWMh-xtTiixb79gYw&utm_campaign=yelp_api_v3&utm_medium=api_v3_business_search&utm_source=QNZpjiWMh-xtTiixb79gYw","16","Pizza","3.5","43.1988016","-89.2263304","$$","1219 W Main St"
"xIjKMreStEC_PkSvfs64HQ","George's Chicken and Fish","FALSE","https://www.yelp.com/biz/georges-chicken-and-fish-sun-prairie-2?adjust_creative=QNZpjiWMh-xtTiixb79gYw&utm_campaign=yelp_api_v3&utm_medium=api_v3_business_search&utm_source=QNZpjiWMh-xtTiixb79gYw","16","Chicken Wings | Fast Food | Hot Dogs","4","43.195816129446","-89.2110054194927","$","1112 N Bristol St"
"UrbRd2Ixu__uFMVVR5vwEw","Jimmy John's","FALSE","https://www.yelp.com/biz/jimmy-johns-sun-prairie?adjust_creative=QNZpjiWMh-xtTiixb79gYw&utm_campaign=yelp_api_v3&utm_medium=api_v3_business_search&utm_source=QNZpjiWMh-xtTiixb79gYw","3","Delis | Sandwiches | Fast Food","3.5","43.1982002","-89.2118301","$","21 Tower Dr"
"72O1q3QA4rAcMy8mnjzQag","Spring Garden Restaurant","FALSE","https://www.yelp.com/biz/spring-garden-restaurant-waunakee?adjust_creative=QNZpjiWMh-xtTiixb79gYw&utm_campaign=yelp_api_v3&utm_medium=api_v3_business_search&utm_source=QNZpjiWMh-xtTiixb79gYw","12","Diners | Mediterranean","2.5","43.1905522942543","-89.4618315249681","$$","225 S Century Ave"
"qd1QvLRMJMPRQIdhyWmhRg","China Wok Chinese Restaurant","FALSE","https://www.yelp.com/biz/china-wok-chinese-restaurant-waunakee-2?adjust_creative=QNZpjiWMh-xtTiixb79gYw&utm_campaign=yelp_api_v3&utm_medium=api_v3_business_search&utm_source=QNZpjiWMh-xtTiixb79gYw","19","Chinese","3","43.1891526","-89.4611819","$$","204 S Century Ave"
"TjAdRp37EscR8y-4M2m4bg","Papa Murphy's","FALSE","https://www.yelp.com/biz/papa-murphys-waunakee?adjust_creative=QNZpjiWMh-xtTiixb79gYw&utm_campaign=yelp_api_v3&utm_medium=api_v3_business_search&utm_source=QNZpjiWMh-xtTiixb79gYw","4","Pizza","2.5","43.1906124968885","-89.4618316749644","","219 South Century Avenue"
"QBss179ZGTx7kgHo3QyivQ","KFC","FALSE","https://www.yelp.com/biz/kfc-waunakee?adjust_creative=QNZpjiWMh-xtTiixb79gYw&utm_campaign=yelp_api_v3&utm_medium=api_v3_business_search&utm_source=QNZpjiWMh-xtTiixb79gYw","2","Fast Food | Chicken Wings | Chicken Shop","1","43.1918","-89.4638","$","600 W Main St"
"PIeKuOaEDSm7hHAaLnEz3A","Subway","FALSE","https://www.yelp.com/biz/subway-waunakee-2?adjust_creative=QNZpjiWMh-xtTiixb79gYw&utm_campaign=yelp_api_v3&utm_medium=api_v3_business_search&utm_source=QNZpjiWMh-xtTiixb79gYw","1","Fast Food | Sandwiches","5","43.19026","-89.46253","$$","209 S Century Ave"
"3H8GMPJGdkw1PS87aBsqXQ","Little Caesars Pizza","FALSE","https://www.yelp.com/biz/little-caesars-pizza-waunakee?adjust_creative=QNZpjiWMh-xtTiixb79gYw&utm_campaign=yelp_api_v3&utm_medium=api_v3_business_search&utm_source=QNZpjiWMh-xtTiixb79gYw","4","Pizza","4","43.1904319618374","-89.461831674782","","237 S Century Ave"
"LXVwq9kk7ThMVxsPtRjbjQ","Zoe's Pizzeria","FALSE","https://www.yelp.com/biz/zoes-pizzeria-waunakee-2?adjust_creative=QNZpjiWMh-xtTiixb79gYw&utm_campaign=yelp_api_v3&utm_medium=api_v3_business_search&utm_source=QNZpjiWMh-xtTiixb79gYw","24","Pizza | Italian","4","43.19139","-89.446031","$$$","604 E Main St"
"oXk1MzdecCd7UfEuaHGONQ","Culver's","FALSE","https://www.yelp.com/biz/culvers-waunakee?adjust_creative=QNZpjiWMh-xtTiixb79gYw&utm_campaign=yelp_api_v3&utm_medium=api_v3_business_search&utm_source=QNZpjiWMh-xtTiixb79gYw","3","Fast Food | Ice Cream & Frozen Yogurt | Burgers","4.5","43.19129","-89.43634","$","900 E Main St"
"lzRlrIWuQmHVWU4zV6yZUw","Gus's Diner","FALSE","https://www.yelp.com/biz/guss-diner-sun-prairie?adjust_creative=QNZpjiWMh-xtTiixb79gYw&utm_campaign=yelp_api_v3&utm_medium=api_v3_business_search&utm_source=QNZpjiWMh-xtTiixb79gYw","80","Diners | Breakfast & Brunch | American (Traditional)","4","43.18921","-89.27758","$","630 N Westmount Dr"
"Z-jZdvvNDnAGb5Ts56N30g","What's Brew'n In Sun Prairie","FALSE","https://www.yelp.com/biz/whats-brewn-in-sun-prairie-sun-prairie?adjust_creative=QNZpjiWMh-xtTiixb79gYw&utm_campaign=yelp_api_v3&utm_medium=api_v3_business_search&utm_source=QNZpjiWMh-xtTiixb79gYw","16","Ice Cream & Frozen Yogurt | Coffee & Tea | Breakfast & Brunch","4","43.18873","-89.27854","$","3140 Edmonton Dr"
"zcjttSrlvFbvAGDweRPeiQ","Burrachos Fresh Mexican Grill","FALSE","https://www.yelp.com/biz/burrachos-fresh-mexican-grill-sun-prairie?adjust_creative=QNZpjiWMh-xtTiixb79gYw&utm_campaign=yelp_api_v3&utm_medium=api_v3_business_search&utm_source=QNZpjiWMh-xtTiixb79gYw","30","Mexican","3","43.186737","-89.2668449","$","2691 Windsor St"
"7dtzpuYYpZeg-kJj3yTcUQ","Sonic Drive-In","FALSE","https://www.yelp.com/biz/sonic-drive-in-sun-prairie?adjust_creative=QNZpjiWMh-xtTiixb79gYw&utm_campaign=yelp_api_v3&utm_medium=api_v3_business_search&utm_source=QNZpjiWMh-xtTiixb79gYw","38","Fast Food | Burgers | Ice Cream & Frozen Yogurt","2","43.1851428751974","-89.263901271006","$","2564 Ironwood Dr"
"KO4wWuH2EP5PPKvt7xKqMA","Subway","FALSE","https://www.yelp.com/biz/subway-sun-praiie?adjust_creative=QNZpjiWMh-xtTiixb79gYw&utm_campaign=yelp_api_v3&utm_medium=api_v3_business_search&utm_source=QNZpjiWMh-xtTiixb79gYw","2","Sandwiches | Fast Food","3","43.1864674859319","-89.2666067472817","","2681 Windsor St"
"xWoR1dWYY3xu9BqBfpXJ9g","Prairie Diner","FALSE","https://www.yelp.com/biz/prairie-diner-sun-prairie?adjust_creative=QNZpjiWMh-xtTiixb79gYw&utm_campaign=yelp_api_v3&utm_medium=api_v3_business_search&utm_source=QNZpjiWMh-xtTiixb79gYw","38","Diners","4","43.188072","-89.23085","$","1034 Windsor St"
"cUlrdqPesvSD3V26957Hqw","Daly's Bar & Grill","FALSE","https://www.yelp.com/biz/dalys-bar-and-grill-sun-prairie?adjust_creative=QNZpjiWMh-xtTiixb79gYw&utm_campaign=yelp_api_v3&utm_medium=api_v3_business_search&utm_source=QNZpjiWMh-xtTiixb79gYw","34","American (Traditional) | Bars","4","43.186541","-89.232231","$$","1086 Emerald Ter"
"0tjNLQP55HZIVT7BxaMYrA","Country Cafe","FALSE","https://www.yelp.com/biz/country-cafe-sun-prairie?adjust_creative=QNZpjiWMh-xtTiixb79gYw&utm_campaign=yelp_api_v3&utm_medium=api_v3_business_search&utm_source=QNZpjiWMh-xtTiixb79gYw","19","Diners | Breakfast & Brunch | American (Traditional)","3.5","43.1869049072266","-89.2310333251953","$","1030 Emerald Ter"
"ews1zoLozRjcTIQNthvPZg","KFC","FALSE","https://www.yelp.com/biz/kfc-sun-prairie?adjust_creative=QNZpjiWMh-xtTiixb79gYw&utm_campaign=yelp_api_v3&utm_medium=api_v3_business_search&utm_source=QNZpjiWMh-xtTiixb79gYw","15","Fast Food | Chicken Wings | Chicken Shop","1.5","43.1866","-89.2315","$","1070 Emerald Ter"
"dBRMdGVzJ2mHtKuOqBS9lw","Jacobson Bros Meats & Deli","FALSE","https://www.yelp.com/biz/jacobson-bros-meats-and-deli-sun-prairie?adjust_creative=QNZpjiWMh-xtTiixb79gYw&utm_campaign=yelp_api_v3&utm_medium=api_v3_business_search&utm_source=QNZpjiWMh-xtTiixb79gYw","4","Meat Shops | Delis","4.5","43.1879387","-89.2422638","","1704 Windsor St"
"E9fhAPEnwiKkH85gmuYbdw","Erbert and Gerbert's","FALSE","https://www.yelp.com/biz/erbert-and-gerberts-sun-prairie?adjust_creative=QNZpjiWMh-xtTiixb79gYw&utm_campaign=yelp_api_v3&utm_medium=api_v3_business_search&utm_source=QNZpjiWMh-xtTiixb79gYw","24","Sandwiches | Soup | Fast Food","3","43.1879","-89.227905","$","900 Windsor St"
"e-XkLeDKWKpleCT5a78gsw","Panda Garden","FALSE","https://www.yelp.com/biz/panda-garden-sun-prairie?adjust_creative=QNZpjiWMh-xtTiixb79gYw&utm_campaign=yelp_api_v3&utm_medium=api_v3_business_search&utm_source=QNZpjiWMh-xtTiixb79gYw","27","Chinese | Seafood","3.5","43.18789","-89.22828","$","922 Windsor St"
"P_PCpidHJQksW2-ufqoz4w","Marco's Pizza","FALSE","https://www.yelp.com/biz/marcos-pizza-sun-prairie?adjust_creative=QNZpjiWMh-xtTiixb79gYw&utm_campaign=yelp_api_v3&utm_medium=api_v3_business_search&utm_source=QNZpjiWMh-xtTiixb79gYw","20","Pizza","3.5","43.18792","-89.22664","$$","804 Windsor St"
"P8ersCaJqnL1paY9FFnZ9w","Burger King","FALSE","https://www.yelp.com/biz/burger-king-sun-prairie?adjust_creative=QNZpjiWMh-xtTiixb79gYw&utm_campaign=yelp_api_v3&utm_medium=api_v3_business_search&utm_source=QNZpjiWMh-xtTiixb79gYw","31","Burgers","1","43.1877822875977","-89.2272186279297","$","822 Windsor St"
"lq71ZTkANfb40sR0DAs6Rw","Pizza Hut","FALSE","https://www.yelp.com/biz/pizza-hut-sun-prairie-2?adjust_creative=QNZpjiWMh-xtTiixb79gYw&utm_campaign=yelp_api_v3&utm_medium=api_v3_business_search&utm_source=QNZpjiWMh-xtTiixb79gYw","9","Italian | Pizza | Chicken Wings","2","43.18846","-89.22833","$","914 Windsor Rd"
"f5QG_TCCkDlQqby22jWPXw","Pine Cone Restaurant","FALSE","https://www.yelp.com/biz/pine-cone-restaurant-de-forest?adjust_creative=QNZpjiWMh-xtTiixb79gYw&utm_campaign=yelp_api_v3&utm_medium=api_v3_business_search&utm_source=QNZpjiWMh-xtTiixb79gYw","71","American (Traditional)","4","43.18405","-89.32297","$","6162 US Hwy 51"
"uXZ4Of7CV77SmKIjya3y_A","Varsity Bar & Grill","FALSE","https://www.yelp.com/biz/varsity-bar-and-grill-sun-prairie?adjust_creative=QNZpjiWMh-xtTiixb79gYw&utm_campaign=yelp_api_v3&utm_medium=api_v3_business_search&utm_source=QNZpjiWMh-xtTiixb79gYw","15","American (Traditional) | Bars","4","43.1795501708984","-89.2332000732422","$","1205 W Main St"
"gsCOklDm1pbx3Tzo3W-mtw","El Patron Mexican Grill","FALSE","https://www.yelp.com/biz/el-patron-mexican-grill-sun-prairie?adjust_creative=QNZpjiWMh-xtTiixb79gYw&utm_campaign=yelp_api_v3&utm_medium=api_v3_business_search&utm_source=QNZpjiWMh-xtTiixb79gYw","45","Mexican","3","43.17897","-89.23521","$$","1303 W Main St"
"DcdjPu2wFoMp-G3K7PnYqQ","Anna's Pizzeria","FALSE","https://www.yelp.com/biz/annas-pizzeria-sun-prairie?adjust_creative=QNZpjiWMh-xtTiixb79gYw&utm_campaign=yelp_api_v3&utm_medium=api_v3_business_search&utm_source=QNZpjiWMh-xtTiixb79gYw","21","Pizza","4.5","43.1778","-89.240339","$$","1609 W Main St"
"K6JBV6RTa8eMYIJ7RVP4Bg","Culver's Frozen Custard","FALSE","https://www.yelp.com/biz/culvers-frozen-custard-sun-prairie?adjust_creative=QNZpjiWMh-xtTiixb79gYw&utm_campaign=yelp_api_v3&utm_medium=api_v3_business_search&utm_source=QNZpjiWMh-xtTiixb79gYw","12","Fast Food | Ice Cream & Frozen Yogurt","4.5","43.1780242919922","-89.2387847900391","$","1501 W Main St"
"z8MnefVbAKcIGN7BwDullA","Domino's Pizza","FALSE","https://www.yelp.com/biz/dominos-pizza-sun-prairie?adjust_creative=QNZpjiWMh-xtTiixb79gYw&utm_campaign=yelp_api_v3&utm_medium=api_v3_business_search&utm_source=QNZpjiWMh-xtTiixb79gYw","16","Pizza | Chicken Wings | Sandwiches","2.5","43.1778335571289","-89.23974609375","$$","1585 W Main St"
"5knOqCWniwFbDlznijP3bQ","Little Caesars Pizza","FALSE","https://www.yelp.com/biz/little-caesars-pizza-sun-prairie?adjust_creative=QNZpjiWMh-xtTiixb79gYw&utm_campaign=yelp_api_v3&utm_medium=api_v3_business_search&utm_source=QNZpjiWMh-xtTiixb79gYw","7","Pizza","2.5","43.17939","-89.2361899","$","1326 W Main St"
"1Hhc1h5TETqtVMgasiimuQ","Subway","FALSE","https://www.yelp.com/biz/subway-sun-prairie?adjust_creative=QNZpjiWMh-xtTiixb79gYw&utm_campaign=yelp_api_v3&utm_medium=api_v3_business_search&utm_source=QNZpjiWMh-xtTiixb79gYw","5","Sandwiches | Fast Food","3","43.17834","-89.23751","$","1429 W Main St"
"0fY-zYyP2fDmp2YXFsuNTg","Gotham Provisions Company","FALSE","https://www.yelp.com/biz/gotham-provisions-company-sun-prairie?adjust_creative=QNZpjiWMh-xtTiixb79gYw&utm_campaign=yelp_api_v3&utm_medium=api_v3_business_search&utm_source=QNZpjiWMh-xtTiixb79gYw","14","Bagels | Sandwiches | Soup","4.5","43.18293","-89.22031","$","503 W Main St"
"tWX7j4Qg4cXofQqmoNKH3A","Sir Hobo's","FALSE","https://www.yelp.com/biz/sir-hobos-sun-prairie?adjust_creative=QNZpjiWMh-xtTiixb79gYw&utm_campaign=yelp_api_v3&utm_medium=api_v3_business_search&utm_source=QNZpjiWMh-xtTiixb79gYw","34","American (Traditional) | Breakfast & Brunch | Sandwiches","3.5","43.18244","-89.22563","$","710 W Main St"
"TNV-nSWQ_pN6wrMwAgxSkA","Mc Govern's Club and Restaurant","FALSE","https://www.yelp.com/biz/mc-governs-club-and-restaurant-sun-prairie-2?adjust_creative=QNZpjiWMh-xtTiixb79gYw&utm_campaign=yelp_api_v3&utm_medium=api_v3_business_search&utm_source=QNZpjiWMh-xtTiixb79gYw","14","Steakhouses | Burgers | Sandwiches","3.5","43.1824951171875","-89.2271881103516","$$","820 W Main St"
"l7A73zaNzDyWJJ0ixc2ymw","Pizza Pit","FALSE","https://www.yelp.com/biz/pizza-pit-sun-prairie?adjust_creative=QNZpjiWMh-xtTiixb79gYw&utm_campaign=yelp_api_v3&utm_medium=api_v3_business_search&utm_source=QNZpjiWMh-xtTiixb79gYw","10","Pizza | Chicken Wings | Sandwiches","3","43.1832772","-89.2185271","$","330 W Main St"
"BbbqKqCNxPf3BeucxO0ziw","Dairy Queen","FALSE","https://www.yelp.com/biz/dairy-queen-sun-prairie?adjust_creative=QNZpjiWMh-xtTiixb79gYw&utm_campaign=yelp_api_v3&utm_medium=api_v3_business_search&utm_source=QNZpjiWMh-xtTiixb79gYw","8","Fast Food | Ice Cream & Frozen Yogurt","4","43.1824799","-89.2252502","$","704 W Main St"
"lT4-nAyBJE2NJvi_dGwU5Q","Wendy's","FALSE","https://www.yelp.com/biz/wendys-sun-prairie?adjust_creative=QNZpjiWMh-xtTiixb79gYw&utm_campaign=yelp_api_v3&utm_medium=api_v3_business_search&utm_source=QNZpjiWMh-xtTiixb79gYw","3","Fast Food | Burgers","1","43.1816788","-89.2258911","","743 W Main St"
"HYu8gp959DvQcCYuyh02DA","Milio's Sandwiches","FALSE","https://www.yelp.com/biz/milios-sandwiches-sun-prairie?adjust_creative=QNZpjiWMh-xtTiixb79gYw&utm_campaign=yelp_api_v3&utm_medium=api_v3_business_search&utm_source=QNZpjiWMh-xtTiixb79gYw","7","Sandwiches","2","43.18298","-89.21925","$$","407 W Main St"
"Hf64S1mE01qTOghyCa81cA","Guimo's Mexican Restaurant","FALSE","https://www.yelp.com/biz/guimos-mexican-restaurant-sun-prairie?adjust_creative=QNZpjiWMh-xtTiixb79gYw&utm_campaign=yelp_api_v3&utm_medium=api_v3_business_search&utm_source=QNZpjiWMh-xtTiixb79gYw","44","Mexican","4","43.184173","-89.21377","$","126 N Bristol St"
"Gm---0O1y_4TAQAl5qKvqQ","Salvatore's Tomato Pies","FALSE","https://www.yelp.com/biz/salvatores-tomato-pies-sun-prairie-2?adjust_creative=QNZpjiWMh-xtTiixb79gYw&utm_campaign=yelp_api_v3&utm_medium=api_v3_business_search&utm_source=QNZpjiWMh-xtTiixb79gYw","79","Pizza | Italian | American (New)","4.5","43.1831167270719","-89.2127708167865","$$","121 E Main St"
"2U-BRvnR9IGb61-GnIshLw","Market Street Diner","FALSE","https://www.yelp.com/biz/market-street-diner-sun-prairie?adjust_creative=QNZpjiWMh-xtTiixb79gYw&utm_campaign=yelp_api_v3&utm_medium=api_v3_business_search&utm_source=QNZpjiWMh-xtTiixb79gYw","105","Diners","3","43.182384","-89.211448","$$","110 Market St"
"uQ3Ixx8WJL8UWPwFYDzncg","Abarrotes El Primo","FALSE","https://www.yelp.com/biz/abarrotes-el-primo-sun-prairie-2?adjust_creative=QNZpjiWMh-xtTiixb79gYw&utm_campaign=yelp_api_v3&utm_medium=api_v3_business_search&utm_source=QNZpjiWMh-xtTiixb79gYw","14","Grocery | Tacos","5","43.183093099412","-89.2134281247854","$","105 E Main St"
"nnZU8CDlcDN8DBQ8KSqtmQ","Nitty Gritty - Sun Prairie","FALSE","https://www.yelp.com/biz/nitty-gritty-sun-prairie-sun-prairie-2?adjust_creative=QNZpjiWMh-xtTiixb79gYw&utm_campaign=yelp_api_v3&utm_medium=api_v3_business_search&utm_source=QNZpjiWMh-xtTiixb79gYw","76","American (Traditional) | Burgers | Sports Bars","3","43.1817261571505","-89.2107516861505","$$","315 E Linnerud Dr"
"JQ4tpUOOwlrZXSyW4Wlyaw","China Garden","FALSE","https://www.yelp.com/biz/china-garden-sun-prairie?adjust_creative=QNZpjiWMh-xtTiixb79gYw&utm_campaign=yelp_api_v3&utm_medium=api_v3_business_search&utm_source=QNZpjiWMh-xtTiixb79gYw","5","Chinese","4","43.1835","-89.21297","$","120 E Main St"
"sbm0jmhWui8YrvFgxnJ4kQ","Glass Nickel Pizza","FALSE","https://www.yelp.com/biz/glass-nickel-pizza-sun-prairie-2?adjust_creative=QNZpjiWMh-xtTiixb79gYw&utm_campaign=yelp_api_v3&utm_medium=api_v3_business_search&utm_source=QNZpjiWMh-xtTiixb79gYw","40","Pizza","2.5","43.183207802688","-89.2138374190222","$$","101 W Main St"
"HjdEgAATE1UgqfxG_0clDQ","Day One Pizza","FALSE","https://www.yelp.com/biz/day-one-pizza-sun-prairie?adjust_creative=QNZpjiWMh-xtTiixb79gYw&utm_campaign=yelp_api_v3&utm_medium=api_v3_business_search&utm_source=QNZpjiWMh-xtTiixb79gYw","15","Pizza","4","43.1809106490884","-89.2099200232077","$","355 E Linnerud Dr"
"AnPzJ_xF7QxtrSvLTvWjGg","McDonald's","FALSE","https://www.yelp.com/biz/mcdonalds-sun-prairie-4?adjust_creative=QNZpjiWMh-xtTiixb79gYw&utm_campaign=yelp_api_v3&utm_medium=api_v3_business_search&utm_source=QNZpjiWMh-xtTiixb79gYw","3","Fast Food | Coffee & Tea | Burgers","3","43.1814042531697","-89.2066910862923","","606 E Main St"
"-c_Yw4PMuG4QB9sDJ0cV-g","Wall Street Gallery and Bistro","FALSE","https://www.yelp.com/biz/wall-street-gallery-and-bistro-mazomanie?adjust_creative=QNZpjiWMh-xtTiixb79gYw&utm_campaign=yelp_api_v3&utm_medium=api_v3_business_search&utm_source=QNZpjiWMh-xtTiixb79gYw","6","Pizza | Italian | Art Galleries","5","43.17632","-89.79446","$$$$","14 Brodhead St"
"Vpqydqj_r-FOea2vW13qLg","Base Camp Cafe","FALSE","https://www.yelp.com/biz/base-camp-cafe-mazomanie?adjust_creative=QNZpjiWMh-xtTiixb79gYw&utm_campaign=yelp_api_v3&utm_medium=api_v3_business_search&utm_source=QNZpjiWMh-xtTiixb79gYw","14","Soup | Sandwiches","4.5","43.1763611","-89.7943878","$","18 Brodhead St"
"yg8Akj0CO0B4mvQ6Xe57fw","Gordon's Drive-In Restaurant","FALSE","https://www.yelp.com/biz/gordons-drive-in-restaurant-mazomanie?adjust_creative=QNZpjiWMh-xtTiixb79gYw&utm_campaign=yelp_api_v3&utm_medium=api_v3_business_search&utm_source=QNZpjiWMh-xtTiixb79gYw","9","Fast Food","4.5","43.1718747317791","-89.7960944473743","$$","122 W Commercial St"
"gN8H5X-k7GHbAXm97q0kkg","Blowin' Smoke BBQ","FALSE","https://www.yelp.com/biz/blowin-smoke-bbq-waunakee?adjust_creative=QNZpjiWMh-xtTiixb79gYw&utm_campaign=yelp_api_v3&utm_medium=api_v3_business_search&utm_source=QNZpjiWMh-xtTiixb79gYw","82","Barbeque | Food Trucks | Sandwiches","3.5","43.174189","-89.4134032","$$","1336 Montondon Ave"
"401Ma310RUt_Vdl7DmCNYA","Popeyes Louisiana Kitchen","FALSE","https://www.yelp.com/biz/popeyes-louisiana-kitchen-deforest?adjust_creative=QNZpjiWMh-xtTiixb79gYw&utm_campaign=yelp_api_v3&utm_medium=api_v3_business_search&utm_source=QNZpjiWMh-xtTiixb79gYw","8","Chicken Wings | Fast Food","2.5","43.1741725","-89.3259892","","5901 Hwy 51"
"7jSku7puwAVGyEtkv37Egw","Firehouse Subs","FALSE","https://www.yelp.com/biz/firehouse-subs-sun-prairie?adjust_creative=QNZpjiWMh-xtTiixb79gYw&utm_campaign=yelp_api_v3&utm_medium=api_v3_business_search&utm_source=QNZpjiWMh-xtTiixb79gYw","3","Fast Food | Delis | Sandwiches","3.5","43.1719966","-89.2653721","","390 S. Grand Ave."
"A9rIqoqp5OO_56w82PiHEA","Pizza Ranch","FALSE","https://www.yelp.com/biz/pizza-ranch-sun-prairie?adjust_creative=QNZpjiWMh-xtTiixb79gYw&utm_campaign=yelp_api_v3&utm_medium=api_v3_business_search&utm_source=QNZpjiWMh-xtTiixb79gYw","44","American (New) | Pizza","3","43.1710665848477","-89.2660852252921","$$","682 S Grand Ave"
"8nMgZDgyvDvduIWw9DfuPQ","Taco Bell","FALSE","https://www.yelp.com/biz/taco-bell-sun-prairie?adjust_creative=QNZpjiWMh-xtTiixb79gYw&utm_campaign=yelp_api_v3&utm_medium=api_v3_business_search&utm_source=QNZpjiWMh-xtTiixb79gYw","17","Fast Food | Mexican | Tex-Mex","2.5","43.174555","-89.25008","$","2005 McCoy Rd"
"-CxNhGa-yskzfrTP9GX6zA","Papa Murphy's","FALSE","https://www.yelp.com/biz/papa-murphys-sun-prairie?adjust_creative=QNZpjiWMh-xtTiixb79gYw&utm_campaign=yelp_api_v3&utm_medium=api_v3_business_search&utm_source=QNZpjiWMh-xtTiixb79gYw","6","Pizza","2.5","43.17413","-89.24877","$$","2041 McCoy Road"
"AlasWUIgTCBIqwnZsBt-qg","Subway","FALSE","https://www.yelp.com/biz/subway-sun-prairie-4?adjust_creative=QNZpjiWMh-xtTiixb79gYw&utm_campaign=yelp_api_v3&utm_medium=api_v3_business_search&utm_source=QNZpjiWMh-xtTiixb79gYw","2","Sandwiches | Fast Food","3.5","43.174517","-89.245982","","1905 McCoy Rd"
"GzF7sbLocL-0e9o3_zPNyw","Willie Ty's Eatery","FALSE","https://www.yelp.com/biz/willie-tys-eatery-sun-prairie?adjust_creative=QNZpjiWMh-xtTiixb79gYw&utm_campaign=yelp_api_v3&utm_medium=api_v3_business_search&utm_source=QNZpjiWMh-xtTiixb79gYw","44","Burgers | Pubs | Sandwiches","4","43.175442","-89.208573","$$","836 Grove St"
"2a09qbpScGeZU7M90Bxfww","Rusty's Pizza & Grill","FALSE","https://www.yelp.com/biz/rustys-pizza-and-grill-marshall?adjust_creative=QNZpjiWMh-xtTiixb79gYw&utm_campaign=yelp_api_v3&utm_medium=api_v3_business_search&utm_source=QNZpjiWMh-xtTiixb79gYw","4","Pizza","3","43.169657","-89.0704762","","516 Plaza Dr"
"gvvcLXYovXSs4UfDjms4MQ","Golden Dragon Chinese Kitchen","FALSE","https://www.yelp.com/biz/golden-dragon-chinese-kitchen-marshall?adjust_creative=QNZpjiWMh-xtTiixb79gYw&utm_campaign=yelp_api_v3&utm_medium=api_v3_business_search&utm_source=QNZpjiWMh-xtTiixb79gYw","9","Chinese","4","43.169565","-89.0702572","$","514 Plaza Dr"
"BrMzQUTWHcf27hzXY0HZFA","Jimmy John's","FALSE","https://www.yelp.com/biz/jimmy-johns-marshall?adjust_creative=QNZpjiWMh-xtTiixb79gYw&utm_campaign=yelp_api_v3&utm_medium=api_v3_business_search&utm_source=QNZpjiWMh-xtTiixb79gYw","2","Sandwiches | Delis | Fast Food","4","43.17147","-89.071965","$","701 W Main St"
"z2Xg3G8bhifDHt4M1wWEXw","Rookies Food & Spirits","FALSE","https://www.yelp.com/biz/rookies-food-and-spirits-mazomanie?adjust_creative=QNZpjiWMh-xtTiixb79gYw&utm_campaign=yelp_api_v3&utm_medium=api_v3_business_search&utm_source=QNZpjiWMh-xtTiixb79gYw","28","Sports Bars | American (Traditional)","3.5","43.16566","-89.77105","$$","10267 US Hwy 14"
"E2kB0kcdBe-Ec7uQPIRAqQ","Veterans of Foreign Wars Truax-Longmire Post 8483","FALSE","https://www.yelp.com/biz/veterans-of-foreign-wars-truax-longmire-post-8483-madison?adjust_creative=QNZpjiWMh-xtTiixb79gYw&utm_campaign=yelp_api_v3&utm_medium=api_v3_business_search&utm_source=QNZpjiWMh-xtTiixb79gYw","2","American (Traditional)","4","43.1623497","-89.335083","","5737 County Road Cv"
"efpN6C2TYdW-BfEYdBXEbw","Country Pride Restaurant","FALSE","https://www.yelp.com/biz/country-pride-restaurant-madison-2?adjust_creative=QNZpjiWMh-xtTiixb79gYw&utm_campaign=yelp_api_v3&utm_medium=api_v3_business_search&utm_source=QNZpjiWMh-xtTiixb79gYw","2","American (New)","1.5","43.1624291","-89.3242165","$$","5901 Hwy 51"
"uivpqxLmLXhuargU1f6uGQ","MACS","FALSE","https://www.yelp.com/biz/macs-sun-prairie?adjust_creative=QNZpjiWMh-xtTiixb79gYw&utm_campaign=yelp_api_v3&utm_medium=api_v3_business_search&utm_source=QNZpjiWMh-xtTiixb79gYw","127","American (New) | Comfort Food","4","43.1665880374798","-89.2706137266195","$","2804 Prairie Lakes Dr"
"S8jQztEAObUAbW6aeRFqjQ","Beef Butter BBQ","FALSE","https://www.yelp.com/biz/beef-butter-bbq-sun-prairie?adjust_creative=QNZpjiWMh-xtTiixb79gYw&utm_campaign=yelp_api_v3&utm_medium=api_v3_business_search&utm_source=QNZpjiWMh-xtTiixb79gYw","4","Food Trucks | Barbeque | Caterers","5","43.16475","-89.26689","","1099 S Grand Ave"
"bNdLi3Vs1HNn04CaO8qBgw","Monk's Bar & Grill - Sun Prairie","FALSE","https://www.yelp.com/biz/monks-bar-and-grill-sun-prairie-sun-prairie?adjust_creative=QNZpjiWMh-xtTiixb79gYw&utm_campaign=yelp_api_v3&utm_medium=api_v3_business_search&utm_source=QNZpjiWMh-xtTiixb79gYw","76","American (Traditional) | Sports Bars | Burgers","3","43.1662620413053","-89.2708006005249","$$","2832 Prairie Lakes Dr"
"gapf3si69XZVKiaBilfwWQ","Noodles & Company","FALSE","https://www.yelp.com/biz/noodles-and-company-sun-prairie?adjust_creative=QNZpjiWMh-xtTiixb79gYw&utm_campaign=yelp_api_v3&utm_medium=api_v3_business_search&utm_source=QNZpjiWMh-xtTiixb79gYw","20","Noodles","2.5","43.168339","-89.269423","$$","2812 Prairie Lakes Dr"
"VBmgjfLuyjU4t2k9lIdFJA","Which Wich","FALSE","https://www.yelp.com/biz/which-wich-sun-prairie?adjust_creative=QNZpjiWMh-xtTiixb79gYw&utm_campaign=yelp_api_v3&utm_medium=api_v3_business_search&utm_source=QNZpjiWMh-xtTiixb79gYw","41","Sandwiches","3","43.167334","-89.270684","$","2828 Prairie Lakes Dr"
"d2VdAB1-AasPxxLPL6QE4A","McDonald's","FALSE","https://www.yelp.com/biz/mcdonalds-sun-prairie-2?adjust_creative=QNZpjiWMh-xtTiixb79gYw&utm_campaign=yelp_api_v3&utm_medium=api_v3_business_search&utm_source=QNZpjiWMh-xtTiixb79gYw","15","Fast Food | Burgers | Coffee & Tea","1","43.1665948496479","-89.2670749910985","$","2750 Prairie Lakes Dr"
"mMoOtnrOEKqRrcWJikM9xg","Rocky Rococo Pan Style Pizza - Sun Prairie","FALSE","https://www.yelp.com/biz/rocky-rococo-pan-style-pizza-sun-prairie-sun-prairie?adjust_creative=QNZpjiWMh-xtTiixb79gYw&utm_campaign=yelp_api_v3&utm_medium=api_v3_business_search&utm_source=QNZpjiWMh-xtTiixb79gYw","15","Pizza | Salad | Pasta Shops","2","43.166656","-89.266473","$$","2828 Prairie Lakes Dr"
"Uc6pfmAw3J_k3WF4U9YN8A","Arby's","FALSE","https://www.yelp.com/biz/arbys-sun-prairie?adjust_creative=QNZpjiWMh-xtTiixb79gYw&utm_campaign=yelp_api_v3&utm_medium=api_v3_business_search&utm_source=QNZpjiWMh-xtTiixb79gYw","3","Fast Food | Sandwiches","2.5","43.1679470626919","-89.266356056648","$","829 Bunny Trl"
"ZjvEgk0VrOsiV21ceex_Yw","Athens Grill","FALSE","https://www.yelp.com/biz/athens-grill-waunakee?adjust_creative=QNZpjiWMh-xtTiixb79gYw&utm_campaign=yelp_api_v3&utm_medium=api_v3_business_search&utm_source=QNZpjiWMh-xtTiixb79gYw","48","Greek | Mediterranean | Bars","4","43.150747","-89.415007","$","5430 Willow Rd"
"eHqruXdW4K78n1BsyUkNSw","Willows Tavern","FALSE","https://www.yelp.com/biz/willows-tavern-waunakee?adjust_creative=QNZpjiWMh-xtTiixb79gYw&utm_campaign=yelp_api_v3&utm_medium=api_v3_business_search&utm_source=QNZpjiWMh-xtTiixb79gYw","4","Bars | American (Traditional)","2.5","43.1499366760254","-89.4177551269531","$","5485 Willow Rd"
"2vzUzl31fFLHKhM6px-rbg","Mariners","FALSE","https://www.yelp.com/biz/mariners-madison?adjust_creative=QNZpjiWMh-xtTiixb79gYw&utm_campaign=yelp_api_v3&utm_medium=api_v3_business_search&utm_source=QNZpjiWMh-xtTiixb79gYw","62","Seafood | Steakhouses | Venues & Event Spaces","3.5","43.1488","-89.4069899","$$$","5339 Lighthouse Bay Dr"
"kDCmjSgYGn8MbQsnO5UJnA","Nau-Ti-Gal","FALSE","https://www.yelp.com/biz/nau-ti-gal-madison-2?adjust_creative=QNZpjiWMh-xtTiixb79gYw&utm_campaign=yelp_api_v3&utm_medium=api_v3_business_search&utm_source=QNZpjiWMh-xtTiixb79gYw","73","Seafood | Burgers | American (Traditional)","2.5","43.1501998757487","-89.4041699010803","$$","5360 Westport Rd"
"s44Pr0mXmAtxiRqz_m9CPA","Murphy's Bar and Restaurant","FALSE","https://www.yelp.com/biz/murphys-bar-and-restaurant-madison?adjust_creative=QNZpjiWMh-xtTiixb79gYw&utm_campaign=yelp_api_v3&utm_medium=api_v3_business_search&utm_source=QNZpjiWMh-xtTiixb79gYw","33","American (Traditional) | Pubs","3.5","43.149324","-89.399159","$","5344 Hwy 113"
"6_7_aSycZlRsfKENFiIi6g","Happy Wok","FALSE","https://www.yelp.com/biz/happy-wok-madison?adjust_creative=QNZpjiWMh-xtTiixb79gYw&utm_campaign=yelp_api_v3&utm_medium=api_v3_business_search&utm_source=QNZpjiWMh-xtTiixb79gYw","24","Chinese","3.5","43.1470718","-89.2879715","$","17 Eastpark Ct"
"MwsLN3Lo2SEbldy0HvBYEw","Subway","FALSE","https://www.yelp.com/biz/subway-madison-31?adjust_creative=QNZpjiWMh-xtTiixb79gYw&utm_campaign=yelp_api_v3&utm_medium=api_v3_business_search&utm_source=QNZpjiWMh-xtTiixb79gYw","3","Sandwiches | Fast Food","2.5","43.14774","-89.2881","$","5551 Eastpark Blvd"
"42uRhhQDzbtKrUYoBPXS8A","Chicken Lips","FALSE","https://www.yelp.com/biz/chicken-lips-sun-prairie?adjust_creative=QNZpjiWMh-xtTiixb79gYw&utm_campaign=yelp_api_v3&utm_medium=api_v3_business_search&utm_source=QNZpjiWMh-xtTiixb79gYw","101","Chicken Wings | Bars | American (Traditional)","4.5","43.149488","-89.206641","$","5508 County Rd N"
"fIgqpeQDS3eL5FRmO8Rg-g","The Shack Bar & Grill","FALSE","https://www.yelp.com/biz/the-shack-bar-and-grill-black-earth?adjust_creative=QNZpjiWMh-xtTiixb79gYw&utm_campaign=yelp_api_v3&utm_medium=api_v3_business_search&utm_source=QNZpjiWMh-xtTiixb79gYw","3","American (New)","4.5","43.138893","-89.747634","$","1103 Mills St"
"_dhak5USw-yt4gwjkaANWg","St Peter's Catholic Church","FALSE","https://www.yelp.com/biz/st-peters-catholic-church-middleton?adjust_creative=QNZpjiWMh-xtTiixb79gYw&utm_campaign=yelp_api_v3&utm_medium=api_v3_business_search&utm_source=QNZpjiWMh-xtTiixb79gYw","1","Churches | Fish & Chips","4","43.1398009483192","-89.5407981891602","$","7121 County Hwy K"
"cQxVecvklix9qnzIvFMusQ","Connie's Home Plate","FALSE","https://www.yelp.com/biz/connies-home-plate-middleton?adjust_creative=QNZpjiWMh-xtTiixb79gYw&utm_campaign=yelp_api_v3&utm_medium=api_v3_business_search&utm_source=QNZpjiWMh-xtTiixb79gYw","1","Bars | Soul Food","4","43.1403222657996","-89.5269081499057","$","7113 County Rd K"
"ZKqbygpsDNOacLvoK2T2tQ","Game Time Sports Bar and Grill","FALSE","https://www.yelp.com/biz/game-time-sports-bar-and-grill-middleton?adjust_creative=QNZpjiWMh-xtTiixb79gYw&utm_campaign=yelp_api_v3&utm_medium=api_v3_business_search&utm_source=QNZpjiWMh-xtTiixb79gYw","10","Sports Bars | American (Traditional)","4","43.14083","-89.52099","$","6862 County Road K"
"7q7qaGPUUCqMljdIGwzvFQ","Pat O'Malley's Jet Room","FALSE","https://www.yelp.com/biz/pat-o-malleys-jet-room-madison-2?adjust_creative=QNZpjiWMh-xtTiixb79gYw&utm_campaign=yelp_api_v3&utm_medium=api_v3_business_search&utm_source=QNZpjiWMh-xtTiixb79gYw","103","Diners | Breakfast & Brunch | American (Traditional)","4.5","43.139993","-89.3265285","$","3606 Corben Ct"
"JrNMDwyiOGruhvf4coLn2A","Milio's Sandwiches","FALSE","https://www.yelp.com/biz/milios-sandwiches-madison-13?adjust_creative=QNZpjiWMh-xtTiixb79gYw&utm_campaign=yelp_api_v3&utm_medium=api_v3_business_search&utm_source=QNZpjiWMh-xtTiixb79gYw","10","Sandwiches","4","43.1461358","-89.291824","$","5534 E Park Blvd."
"Y2TCGnkXJ1BmxMKLR1r8Jw","Geier's Grill","FALSE","https://www.yelp.com/biz/geiers-grill-madison?adjust_creative=QNZpjiWMh-xtTiixb79gYw&utm_campaign=yelp_api_v3&utm_medium=api_v3_business_search&utm_source=QNZpjiWMh-xtTiixb79gYw","5","Breakfast & Brunch | American (Traditional)","3","43.1425095","-89.2961502","$$","5109 W Terrace Dr"
"1PUPTbQRums97s6yfTnA5A","Pooley's","FALSE","https://www.yelp.com/biz/pooleys-madison?adjust_creative=QNZpjiWMh-xtTiixb79gYw&utm_campaign=yelp_api_v3&utm_medium=api_v3_business_search&utm_source=QNZpjiWMh-xtTiixb79gYw","44","Venues & Event Spaces | Sports Bars | American (Traditional)","3","43.1415634155273","-89.2847518920898","$$","5441 High Crossing Blvd"
"fQ1sYWuXtVVOFWhrC9bTrA","Culver's","FALSE","https://www.yelp.com/biz/culvers-madison-5?adjust_creative=QNZpjiWMh-xtTiixb79gYw&utm_campaign=yelp_api_v3&utm_medium=api_v3_business_search&utm_source=QNZpjiWMh-xtTiixb79gYw","13","Fast Food | Ice Cream & Frozen Yogurt | Burgers","3.5","43.1341552734375","-89.3729019165039","$","1325 Northport Dr"
"tZOMMBJEzkJo6okIwG1Pmw","Mad Town Gastropub","FALSE","https://www.yelp.com/biz/mad-town-gastropub-madison?adjust_creative=QNZpjiWMh-xtTiixb79gYw&utm_campaign=yelp_api_v3&utm_medium=api_v3_business_search&utm_source=QNZpjiWMh-xtTiixb79gYw","52","Gastropubs","2","43.1360768761884","-89.3457995141362","$$","4000 International Ln"
"aKXzSFBrAoC_5kWUvjKGpg","Wurst German Bar","FALSE","https://www.yelp.com/biz/wurst-german-bar-madison?adjust_creative=QNZpjiWMh-xtTiixb79gYw&utm_campaign=yelp_api_v3&utm_medium=api_v3_business_search&utm_source=QNZpjiWMh-xtTiixb79gYw","20","German | Bars","2","43.1369425277548","-89.3456934538327","$$","Dane County Regional Airport"
"ny79ZOnR9yLTN85Vg2BJVg","Metcalfe's Local To Go","FALSE","https://www.yelp.com/biz/metcalfes-local-to-go-madison?adjust_creative=QNZpjiWMh-xtTiixb79gYw&utm_campaign=yelp_api_v3&utm_medium=api_v3_business_search&utm_source=QNZpjiWMh-xtTiixb79gYw","3","Grocery | Cafes","1.5","43.1350461","-89.3463161","$","4000 International Ln"
"7Km9UXolK9vEeBDNqTl5DA","Quiznos","FALSE","https://www.yelp.com/biz/quiznos-madison-16?adjust_creative=QNZpjiWMh-xtTiixb79gYw&utm_campaign=yelp_api_v3&utm_medium=api_v3_business_search&utm_source=QNZpjiWMh-xtTiixb79gYw","4","Sandwiches | Fast Food","2","43.1362085645443","-89.3456268310547","$","4000 International Ln"
"izNAs4Ya2NWKppUgKnQ04w","Chutneys Indian Cuisine","FALSE","https://www.yelp.com/biz/chutneys-indian-cuisine-madison-2?adjust_creative=QNZpjiWMh-xtTiixb79gYw&utm_campaign=yelp_api_v3&utm_medium=api_v3_business_search&utm_source=QNZpjiWMh-xtTiixb79gYw","22","Indian | Buffets","4","43.1331413811392","-89.302571150103","$$","4738 E Washington Ave"
"lw_vRdg4qUprQEgWDG6czQ","Hooters","FALSE","https://www.yelp.com/biz/hooters-madison-3?adjust_creative=QNZpjiWMh-xtTiixb79gYw&utm_campaign=yelp_api_v3&utm_medium=api_v3_business_search&utm_source=QNZpjiWMh-xtTiixb79gYw","35","Sports Bars | American (Traditional) | Chicken Wings","3","43.13195","-89.30139","$$","2639 East Springs Dr"
"rLwxan_oYkL-m8ldqsHuiA","Panera Bread","FALSE","https://www.yelp.com/biz/panera-bread-madison-3?adjust_creative=QNZpjiWMh-xtTiixb79gYw&utm_campaign=yelp_api_v3&utm_medium=api_v3_business_search&utm_source=QNZpjiWMh-xtTiixb79gYw","55","Sandwiches | Salad | Soup","2.5","43.131264","-89.301283","$","2627 E Springs Dr"
"G_DzKLA15CTjq5cOkBp0pw","Pizza Hut","FALSE","https://www.yelp.com/biz/pizza-hut-madison-17?adjust_creative=QNZpjiWMh-xtTiixb79gYw&utm_campaign=yelp_api_v3&utm_medium=api_v3_business_search&utm_source=QNZpjiWMh-xtTiixb79gYw","11","Italian | Pizza | Chicken Wings","2.5","43.13155","-89.30194","$$","2649 E Springs Dr"
"-73xAVllMh_O2nEAcGtbvQ","Hardee's","FALSE","https://www.yelp.com/biz/hardees-madison-3?adjust_creative=QNZpjiWMh-xtTiixb79gYw&utm_campaign=yelp_api_v3&utm_medium=api_v3_business_search&utm_source=QNZpjiWMh-xtTiixb79gYw","8","American (New)","2.5","43.1323051452637","-89.300910949707","$","4814 Annamark Dr"
"X4w6_iAqN8ZqZ15a7YWPgw","Mr Brews Taphouse","FALSE","https://www.yelp.com/biz/mr-brews-taphouse-madison-3?adjust_creative=QNZpjiWMh-xtTiixb79gYw&utm_campaign=yelp_api_v3&utm_medium=api_v3_business_search&utm_source=QNZpjiWMh-xtTiixb79gYw","37","Burgers | Beer Bar","3.5","43.1380457691937","-89.2894092848268","$$","5271 High Crossing Blvd"
"YohEZMYpKrf-3fyPASKLew","Texas Roadhouse","FALSE","https://www.yelp.com/biz/texas-roadhouse-madison?adjust_creative=QNZpjiWMh-xtTiixb79gYw&utm_campaign=yelp_api_v3&utm_medium=api_v3_business_search&utm_source=QNZpjiWMh-xtTiixb79gYw","109","Steakhouses | Barbeque | American (Traditional)","3.5","43.133746","-89.298753","$$","4841 Annamark Dr"
"lbFkq0Ac2nXeeWBCJ0jZRA","Dickey's Barbecue Pit","FALSE","https://www.yelp.com/biz/dickeys-barbecue-pit-madison?adjust_creative=QNZpjiWMh-xtTiixb79gYw&utm_campaign=yelp_api_v3&utm_medium=api_v3_business_search&utm_source=QNZpjiWMh-xtTiixb79gYw","58","Barbeque | American (Traditional) | Southern","3.5","43.133102","-89.299179","$$","4833 Annamark Dr"
"mKT30qU_MlLj4Ps82JAZ8w","Uno Pizzeria & Grill","FALSE","https://www.yelp.com/biz/uno-pizzeria-and-grill-madison-2?adjust_creative=QNZpjiWMh-xtTiixb79gYw&utm_campaign=yelp_api_v3&utm_medium=api_v3_business_search&utm_source=QNZpjiWMh-xtTiixb79gYw","70","Pizza | Gluten-Free | American (Traditional)","3","43.1354446411133","-89.2907867431641","$$","3010 Crossroads Dr"
"Nn5gon8s64jVOZA-2ZkLcA","TGI Fridays","FALSE","https://www.yelp.com/biz/tgi-fridays-madison-2?adjust_creative=QNZpjiWMh-xtTiixb79gYw&utm_campaign=yelp_api_v3&utm_medium=api_v3_business_search&utm_source=QNZpjiWMh-xtTiixb79gYw","29","American (Traditional)","3","43.13107","-89.29861","$$","2502 E Springs Dr"
"ozAb1TjLJqRH_3pb8TaPTw","Red Robin Gourmet Burgers","FALSE","https://www.yelp.com/biz/red-robin-gourmet-burgers-madison?adjust_creative=QNZpjiWMh-xtTiixb79gYw&utm_campaign=yelp_api_v3&utm_medium=api_v3_business_search&utm_source=QNZpjiWMh-xtTiixb79gYw","61","Burgers | American (Traditional)","3.5","43.131248","-89.2975049009175","$$","2440 E Springs Dr"
"JnQHhDLEFcEHloRzIxygEA","Bistro Honda","FALSE","https://www.yelp.com/biz/bistro-honda-madison?adjust_creative=QNZpjiWMh-xtTiixb79gYw&utm_campaign=yelp_api_v3&utm_medium=api_v3_business_search&utm_source=QNZpjiWMh-xtTiixb79gYw","25","Japanese","4","43.1291876","-89.3599845","$$","1865 Northport Dr"
"LhU-XsZ2YObJnP-5uiMIjA","Habanero's Mexican Grill","FALSE","https://www.yelp.com/biz/habaneros-mexican-grill-madison-2?adjust_creative=QNZpjiWMh-xtTiixb79gYw&utm_campaign=yelp_api_v3&utm_medium=api_v3_business_search&utm_source=QNZpjiWMh-xtTiixb79gYw","21","Mexican","3.5","43.1297225601325","-89.3627387103119","$","3001 N Sherman Ave"
"6mnjYZM40r67smOXrg6R4g","Benvenuto's Italian Grill","FALSE","https://www.yelp.com/biz/benvenutos-italian-grill-madison?adjust_creative=QNZpjiWMh-xtTiixb79gYw&utm_campaign=yelp_api_v3&utm_medium=api_v3_business_search&utm_source=QNZpjiWMh-xtTiixb79gYw","47","Italian","3","43.1288990362073","-89.3600500520905","$$","1849 Northport Dr"
"Aua2Vi32K-G4LE0JCtAwiw","McDonald's","FALSE","https://www.yelp.com/biz/mcdonalds-madison-39?adjust_creative=QNZpjiWMh-xtTiixb79gYw&utm_campaign=yelp_api_v3&utm_medium=api_v3_business_search&utm_source=QNZpjiWMh-xtTiixb79gYw","11","Fast Food | Burgers | Coffee & Tea","1.5","43.1284709105839","-89.3588528037072","$","2901 Dryden Dr"
"ymGn0eZHFM0bI8Ig0EVXWg","Habeneros","FALSE","https://www.yelp.com/biz/habeneros-madison?adjust_creative=QNZpjiWMh-xtTiixb79gYw&utm_campaign=yelp_api_v3&utm_medium=api_v3_business_search&utm_source=QNZpjiWMh-xtTiixb79gYw","8","Mexican","4","43.1271230020184","-89.3631029512413","$","3001 N Sherman Ave"
"5sEcWQd9-LqRvE98ouEILA","Subway","FALSE","https://www.yelp.com/biz/subway-madison-2?adjust_creative=QNZpjiWMh-xtTiixb79gYw&utm_campaign=yelp_api_v3&utm_medium=api_v3_business_search&utm_source=QNZpjiWMh-xtTiixb79gYw","4","Sandwiches | Fast Food","3","43.1276207","-89.3633728","","2813 N Sherman Ave"
"5iVy1KRxAHo6ZG6U9B6DLg","Callahan's Sports Pub","FALSE","https://www.yelp.com/biz/callahans-sports-pub-madison-2?adjust_creative=QNZpjiWMh-xtTiixb79gYw&utm_campaign=yelp_api_v3&utm_medium=api_v3_business_search&utm_source=QNZpjiWMh-xtTiixb79gYw","23","Sports Bars | American (Traditional)","3","43.1244202","-89.3244324","$","1902 Bartillon Dr"
"zx_eg_zbs2pyDU4QmCXE1Q","Arby's","FALSE","https://www.yelp.com/biz/arbys-madison-2?adjust_creative=QNZpjiWMh-xtTiixb79gYw&utm_campaign=yelp_api_v3&utm_medium=api_v3_business_search&utm_source=QNZpjiWMh-xtTiixb79gYw","5","Fast Food | Sandwiches","3","43.1238174438477","-89.3152694702148","$","4002 E Washington Ave"
"v2AAGuPuH2QGGwosWZw_qA","McDonald's","FALSE","https://www.yelp.com/biz/mcdonalds-madison-25?adjust_creative=QNZpjiWMh-xtTiixb79gYw&utm_campaign=yelp_api_v3&utm_medium=api_v3_business_search&utm_source=QNZpjiWMh-xtTiixb79gYw","3","Fast Food | Burgers | Coffee & Tea","2","43.1253153519637","-89.3244300075685","","3709 Kinsman Blvd"
"IRfYEXJBQXxIN2d5pD_jKg","Doolittles Woodfire Grill","FALSE","https://www.yelp.com/biz/doolittles-woodfire-grill-madison?adjust_creative=QNZpjiWMh-xtTiixb79gYw&utm_campaign=yelp_api_v3&utm_medium=api_v3_business_search&utm_source=QNZpjiWMh-xtTiixb79gYw","163","American (Traditional) | Wine Bars","3.5","43.1259959103983","-89.3079048581514","$$","4323 E Towne Blvd"
"6tTv835MSguUBDpDtVRvMA","Taqueria Sabor Queretano","FALSE","https://www.yelp.com/biz/taqueria-sabor-queretano-madison?adjust_creative=QNZpjiWMh-xtTiixb79gYw&utm_campaign=yelp_api_v3&utm_medium=api_v3_business_search&utm_source=QNZpjiWMh-xtTiixb79gYw","102","Mexican","4","43.1295928955078","-89.3090744018555","$","4512 E Washington Ave"
"ajNgLG4Eev8GQYZeMBPpdA","Lulu's 13 Pub","FALSE","https://www.yelp.com/biz/lulus-13-pub-madison-2?adjust_creative=QNZpjiWMh-xtTiixb79gYw&utm_campaign=yelp_api_v3&utm_medium=api_v3_business_search&utm_source=QNZpjiWMh-xtTiixb79gYw","28","Pubs | American (Traditional) | Breakfast & Brunch","3.5","43.1248326912381","-89.3017331386325","$$","232 E Towne Mall"
"oSrTdvRGrJ24ofcquIFoPA","Takumi Japanese Restaurant","FALSE","https://www.yelp.com/biz/takumi-japanese-restaurant-madison?adjust_creative=QNZpjiWMh-xtTiixb79gYw&utm_campaign=yelp_api_v3&utm_medium=api_v3_business_search&utm_source=QNZpjiWMh-xtTiixb79gYw","221","Japanese | Sushi Bars","4","43.1248563710121","-89.3101472672116","$$","4222 E Towne Blvd"
"JE3SRhAGqZrAzs0gMm5cIA","MOD Pizza","FALSE","https://www.yelp.com/biz/mod-pizza-madison?adjust_creative=QNZpjiWMh-xtTiixb79gYw&utm_campaign=yelp_api_v3&utm_medium=api_v3_business_search&utm_source=QNZpjiWMh-xtTiixb79gYw","33","Fast Food | Pizza","4","43.129083","-89.303678","$","2249 Zeier Rd"
"6MkQ454ElyTcMrMLU3qm3g","Five Guys","FALSE","https://www.yelp.com/biz/five-guys-madison-6?adjust_creative=QNZpjiWMh-xtTiixb79gYw&utm_campaign=yelp_api_v3&utm_medium=api_v3_business_search&utm_source=QNZpjiWMh-xtTiixb79gYw","9","Burgers | Fast Food","2.5","43.1290871450483","-89.3041576025829","$","2253 Zeier Rd"
"KB25wVbL7Lk22tN72DR0ww","Sarku Japan","FALSE","https://www.yelp.com/biz/sarku-japan-madison?adjust_creative=QNZpjiWMh-xtTiixb79gYw&utm_campaign=yelp_api_v3&utm_medium=api_v3_business_search&utm_source=QNZpjiWMh-xtTiixb79gYw","9","Japanese","4.5","43.1253340608604","-89.3061640031154","$","89 E Towne Mall"
"_6b9CtXi4fQqiu2VjCVpTQ","Outback Steakhouse","FALSE","https://www.yelp.com/biz/outback-steakhouse-madison-4?adjust_creative=QNZpjiWMh-xtTiixb79gYw&utm_campaign=yelp_api_v3&utm_medium=api_v3_business_search&utm_source=QNZpjiWMh-xtTiixb79gYw","63","Steakhouses","3","43.12847","-89.30633","$$","4520 E Towne Blvd"
"DTsCHmHjqWXBCzAkg0YzAA","Chick-fil-A","FALSE","https://www.yelp.com/biz/chick-fil-a-madison-7?adjust_creative=QNZpjiWMh-xtTiixb79gYw&utm_campaign=yelp_api_v3&utm_medium=api_v3_business_search&utm_source=QNZpjiWMh-xtTiixb79gYw","24","Fast Food","4","43.1263","-89.31184","$","4212 East Washington Ave"
"Y_wVqdHHkmfxdaHGOPffqQ","Kato's Cajun","FALSE","https://www.yelp.com/biz/katos-cajun-madison-2?adjust_creative=QNZpjiWMh-xtTiixb79gYw&utm_campaign=yelp_api_v3&utm_medium=api_v3_business_search&utm_source=QNZpjiWMh-xtTiixb79gYw","3","Cajun/Creole | Fast Food","3.5","43.1222350340607","-89.304855","","66 E Towne Mall"
"duG7f4gq2hS-QW50s-g4zA","Chipotle Mexican Grill","FALSE","https://www.yelp.com/biz/chipotle-mexican-grill-madison-2?adjust_creative=QNZpjiWMh-xtTiixb79gYw&utm_campaign=yelp_api_v3&utm_medium=api_v3_business_search&utm_source=QNZpjiWMh-xtTiixb79gYw","35","Mexican | Fast Food","3.5","43.1304445832178","-89.3056955060426","$","4628 E Washington Ave"
"MOsFhDVav42shCq9-rgejw","Potbelly Sandwich Shop","FALSE","https://www.yelp.com/biz/potbelly-sandwich-shop-madison-7?adjust_creative=QNZpjiWMh-xtTiixb79gYw&utm_campaign=yelp_api_v3&utm_medium=api_v3_business_search&utm_source=QNZpjiWMh-xtTiixb79gYw","9","Fast Food | Sandwiches | Salad","4","43.129161","-89.303566","$","2245 Zeier Rd"
"_DpnhekFOZDPNBDekWpx4A","Buffalo Wild Wings","FALSE","https://www.yelp.com/biz/buffalo-wild-wings-madison-2?adjust_creative=QNZpjiWMh-xtTiixb79gYw&utm_campaign=yelp_api_v3&utm_medium=api_v3_business_search&utm_source=QNZpjiWMh-xtTiixb79gYw","58","Chicken Wings | American (Traditional) | Sports Bars","2.5","43.1261620623253","-89.3063609127952","$$","240 East Towne Mall"
"JDwEvZq0KCSwgEds3LxgMA","Olive Garden Italian Restaurant","FALSE","https://www.yelp.com/biz/olive-garden-italian-restaurant-madison-4?adjust_creative=QNZpjiWMh-xtTiixb79gYw&utm_campaign=yelp_api_v3&utm_medium=api_v3_business_search&utm_source=QNZpjiWMh-xtTiixb79gYw","47","Italian | Salad","3","43.1262589","-89.3093567","$$","4320 E Towne Blvd"
"Y9Lsu_1dVNarV2wt1t5Cgw","Growlers Bar & Grille","FALSE","https://www.yelp.com/biz/growlers-bar-and-grille-madison-2?adjust_creative=QNZpjiWMh-xtTiixb79gYw&utm_campaign=yelp_api_v3&utm_medium=api_v3_business_search&utm_source=QNZpjiWMh-xtTiixb79gYw","5","Bars | American (Traditional)","1.5","43.12781","-89.30983","$$","4402 E Washington Ave"
"TXiEgINSZ75d3EtvLvkc4Q","Red Lobster","FALSE","https://www.yelp.com/biz/red-lobster-madison?adjust_creative=QNZpjiWMh-xtTiixb79gYw&utm_campaign=yelp_api_v3&utm_medium=api_v3_business_search&utm_source=QNZpjiWMh-xtTiixb79gYw","60","Seafood | American (Traditional)","3","43.128034","-89.307157","$$","4502 East Towne Blvd"
"nM2Jl9GS7IGlluey8ieivg","Noodles & Company","FALSE","https://www.yelp.com/biz/noodles-and-company-madison-5?adjust_creative=QNZpjiWMh-xtTiixb79gYw&utm_campaign=yelp_api_v3&utm_medium=api_v3_business_search&utm_source=QNZpjiWMh-xtTiixb79gYw","42","Noodles","3","43.1254079486806","-89.3096987727687","$","4280 E Towne Blvd"
"rck304cyCwAxQbUAOuuMwg","Chili's","FALSE","https://www.yelp.com/biz/chilis-madison-22?adjust_creative=QNZpjiWMh-xtTiixb79gYw&utm_campaign=yelp_api_v3&utm_medium=api_v3_business_search&utm_source=QNZpjiWMh-xtTiixb79gYw","29","Bars | Tex-Mex | American (Traditional)","3","43.1267013549805","-89.3087539672852","$$","4344 E Towne Blvd"
"HlYzk84INQaNslFT-lyBFw","Applebee's Grill + Bar","FALSE","https://www.yelp.com/biz/applebees-grill-bar-madison?adjust_creative=QNZpjiWMh-xtTiixb79gYw&utm_campaign=yelp_api_v3&utm_medium=api_v3_business_search&utm_source=QNZpjiWMh-xtTiixb79gYw","42","Sports Bars | Burgers | American (Traditional)","2","43.130109","-89.304069","$$","4710 E Towne Blvd"
"ibVJ52iBKcheyLNOPGU8jg","Culver's","FALSE","https://www.yelp.com/biz/culvers-madison?adjust_creative=QNZpjiWMh-xtTiixb79gYw&utm_campaign=yelp_api_v3&utm_medium=api_v3_business_search&utm_source=QNZpjiWMh-xtTiixb79gYw","23","Fast Food | Ice Cream & Frozen Yogurt | Burgers","3","43.12538","-89.30829","$","4301 E Towne Blvd"
"n28_5ElTCVkhP-9BTgQGgg","IHOP","FALSE","https://www.yelp.com/biz/ihop-madison-9?adjust_creative=QNZpjiWMh-xtTiixb79gYw&utm_campaign=yelp_api_v3&utm_medium=api_v3_business_search&utm_source=QNZpjiWMh-xtTiixb79gYw","26","Breakfast & Brunch | American (Traditional) | Burgers","1.5","43.1301419411028","-89.30638","$","4614 E Washington Ave"
"Lu11ceuxJWh3dgRaPZGbsQ","QDOBA Mexican Eats","FALSE","https://www.yelp.com/biz/qdoba-mexican-eats-madison-2?adjust_creative=QNZpjiWMh-xtTiixb79gYw&utm_campaign=yelp_api_v3&utm_medium=api_v3_business_search&utm_source=QNZpjiWMh-xtTiixb79gYw","31","Mexican | Fast Food","3","43.1302659455981","-89.3034115433693","$","4718 E Towne Blvd"
"uhyxCp9EoPfVr-I4oA48jQ","The Prairie Cafe","FALSE","https://www.yelp.com/biz/the-prairie-cafe-madison?adjust_creative=QNZpjiWMh-xtTiixb79gYw&utm_campaign=yelp_api_v3&utm_medium=api_v3_business_search&utm_source=QNZpjiWMh-xtTiixb79gYw","2","Cafes","3.5","43.127773","-89.309914","","4402 E Washington Ave"
"M6ecA03zMt72QR3eiuLYzQ","Subway","FALSE","https://www.yelp.com/biz/subway-madison-71?adjust_creative=QNZpjiWMh-xtTiixb79gYw&utm_campaign=yelp_api_v3&utm_medium=api_v3_business_search&utm_source=QNZpjiWMh-xtTiixb79gYw","1","Fast Food | Sandwiches","5","43.1307907772494","-89.3054566666714","","4630 E Washington Ave"
"KW5qy8mKBpgd2xL_5w7Mzg","Topper's Pizza","FALSE","https://www.yelp.com/biz/toppers-pizza-madison-2?adjust_creative=QNZpjiWMh-xtTiixb79gYw&utm_campaign=yelp_api_v3&utm_medium=api_v3_business_search&utm_source=QNZpjiWMh-xtTiixb79gYw","20","Pizza","2.5","43.1256294","-89.3129578","$$","4128 E Washington Ave"
"I-7JXoyVi-QpZJLbJMDrgg","Fazoli's","FALSE","https://www.yelp.com/biz/fazolis-madison-2?adjust_creative=QNZpjiWMh-xtTiixb79gYw&utm_campaign=yelp_api_v3&utm_medium=api_v3_business_search&utm_source=QNZpjiWMh-xtTiixb79gYw","26","Italian","2.5","43.1271476745605","-89.3011093139648","$","2143 Zeier Rd"
"4FdXVA-WxWwc5rmjRPJVnQ","McDonald's","FALSE","https://www.yelp.com/biz/mcdonalds-madison-11?adjust_creative=QNZpjiWMh-xtTiixb79gYw&utm_campaign=yelp_api_v3&utm_medium=api_v3_business_search&utm_source=QNZpjiWMh-xtTiixb79gYw","6","Burgers | Fast Food | Coffee & Tea","2","43.1287479014307","-89.3086069822311","$","4502 E Washington Ave"
"8XeWfMGuNsrYkXRwQJjhCQ","Jimmy John's","FALSE","https://www.yelp.com/biz/jimmy-johns-madison?adjust_creative=QNZpjiWMh-xtTiixb79gYw&utm_campaign=yelp_api_v3&utm_medium=api_v3_business_search&utm_source=QNZpjiWMh-xtTiixb79gYw","11","Fast Food | Delis | Sandwiches","2.5","43.12372","-89.31263","$","1791 Thierer Rd"
"dt5yEGC8yy_V7FAC1AcWdw","Steak Escape East Towne Mall","FALSE","https://www.yelp.com/biz/steak-escape-east-towne-mall-madison?adjust_creative=QNZpjiWMh-xtTiixb79gYw&utm_campaign=yelp_api_v3&utm_medium=api_v3_business_search&utm_source=QNZpjiWMh-xtTiixb79gYw","3","Sandwiches | Cheesesteaks","4","43.1282241","-89.3041965","","213 East Towne Mall"
"ToNd6fEn_SvcQc1Fulsidg","Milio's Sandwiches","FALSE","https://www.yelp.com/biz/milios-sandwiches-madison-8?adjust_creative=QNZpjiWMh-xtTiixb79gYw&utm_campaign=yelp_api_v3&utm_medium=api_v3_business_search&utm_source=QNZpjiWMh-xtTiixb79gYw","7","Sandwiches","2.5","43.12526","-89.31034","$","4292 E Towne Blvd"
"tvESBMlJsaARw6hXoRCdjQ","Taco Bell","FALSE","https://www.yelp.com/biz/taco-bell-madison-10?adjust_creative=QNZpjiWMh-xtTiixb79gYw&utm_campaign=yelp_api_v3&utm_medium=api_v3_business_search&utm_source=QNZpjiWMh-xtTiixb79gYw","3","Fast Food | Mexican | Tex-Mex","1","43.127819","-89.306615","","East Towne Mall"
"bVoCucvV32R6GU0zLn0RiA","Happy Wok","FALSE","https://www.yelp.com/biz/happy-wok-madison-4?adjust_creative=QNZpjiWMh-xtTiixb79gYw&utm_campaign=yelp_api_v3&utm_medium=api_v3_business_search&utm_source=QNZpjiWMh-xtTiixb79gYw","3","Chinese","3.5","43.12497","-89.30907","","222 E Towne Mall"
"NYxVVeeI-zz2qjPKk6FCwg","Cracker Barrel Old Country Store","FALSE","https://www.yelp.com/biz/cracker-barrel-old-country-store-madison-2?adjust_creative=QNZpjiWMh-xtTiixb79gYw&utm_campaign=yelp_api_v3&utm_medium=api_v3_business_search&utm_source=QNZpjiWMh-xtTiixb79gYw","52","Breakfast & Brunch | American (Traditional) | Southern","3","43.129569","-89.293437","$","2147 E Springs Dr"
"B5EZlEDH6AVDk8tQGHAGqg","Villa Tap","FALSE","https://www.yelp.com/biz/villa-tap-madison?adjust_creative=QNZpjiWMh-xtTiixb79gYw&utm_campaign=yelp_api_v3&utm_medium=api_v3_business_search&utm_source=QNZpjiWMh-xtTiixb79gYw","37","Dive Bars | American (Traditional)","4","43.1233292","-89.3553925","$","2302 Packers Ave"
"hM48axj9twnf7A6a5f8cjA","Sumo Japanese Steakhouse & Sushi Bar","FALSE","https://www.yelp.com/biz/sumo-japanese-steakhouse-and-sushi-bar-madison?adjust_creative=QNZpjiWMh-xtTiixb79gYw&utm_campaign=yelp_api_v3&utm_medium=api_v3_business_search&utm_source=QNZpjiWMh-xtTiixb79gYw","74","Steakhouses | Sushi Bars | Japanese","3.5","43.12256","-89.31483","$$","1745 Parkside Dr"
"xzGUXMDKa2xw_TJ2n4WrNw","Lazy Oaf Lounge","FALSE","https://www.yelp.com/biz/lazy-oaf-lounge-madison?adjust_creative=QNZpjiWMh-xtTiixb79gYw&utm_campaign=yelp_api_v3&utm_medium=api_v3_business_search&utm_source=QNZpjiWMh-xtTiixb79gYw","48","American (Traditional) | Bars","3","43.119952375425","-89.324377156791","$","1617 N Stoughton Rd"
"u_A58uX7x7AEOKOboFGFpg","Hy-Vee Market Grille","FALSE","https://www.yelp.com/biz/hy-vee-market-grille-madison?adjust_creative=QNZpjiWMh-xtTiixb79gYw&utm_campaign=yelp_api_v3&utm_medium=api_v3_business_search&utm_source=QNZpjiWMh-xtTiixb79gYw","7","Sports Bars | Cafes","3.5","43.1183204650879","-89.3190689086914","$$","3801 E Washington Ave"
"5sV9N8rB3TNBkp1K35WM5w","Cousins Subs","FALSE","https://www.yelp.com/biz/cousins-subs-madison?adjust_creative=QNZpjiWMh-xtTiixb79gYw&utm_campaign=yelp_api_v3&utm_medium=api_v3_business_search&utm_source=QNZpjiWMh-xtTiixb79gYw","8","Sandwiches | Delis","4","43.11731","-89.32302","$","3715 E Washington Ave"
"xkF-0GL_TKkU51xWpItBTQ","Connections","FALSE","https://www.yelp.com/biz/connections-madison?adjust_creative=QNZpjiWMh-xtTiixb79gYw&utm_campaign=yelp_api_v3&utm_medium=api_v3_business_search&utm_source=QNZpjiWMh-xtTiixb79gYw","9","Pubs | Fish & Chips | American (Traditional)","3","43.11771","-89.32194","$","3737 East Washington Ave"
"n8tzdLv8oREwZF6e8u7Hkw","Wendy's","FALSE","https://www.yelp.com/biz/wendys-madison-5?adjust_creative=QNZpjiWMh-xtTiixb79gYw&utm_campaign=yelp_api_v3&utm_medium=api_v3_business_search&utm_source=QNZpjiWMh-xtTiixb79gYw","9","Fast Food | Burgers","2","43.1219711","-89.3180008","$","3910 E Washington Ave"
"KiG6ce3fY5YjnUD4f5eisg","Subway","FALSE","https://www.yelp.com/biz/subway-madison-20?adjust_creative=QNZpjiWMh-xtTiixb79gYw&utm_campaign=yelp_api_v3&utm_medium=api_v3_business_search&utm_source=QNZpjiWMh-xtTiixb79gYw","2","Sandwiches | Fast Food","2","43.11765","-89.32429","","3702 E Washington Ave"
"Lv1vWTJpxIaL34TJcV-CLw","Howard Johnson Madison","FALSE","https://www.yelp.com/biz/howard-johnson-madison-madison-2?adjust_creative=QNZpjiWMh-xtTiixb79gYw&utm_campaign=yelp_api_v3&utm_medium=api_v3_business_search&utm_source=QNZpjiWMh-xtTiixb79gYw","1","Restaurants | Hotels & Travel | Lounges","5","43.1198093709126","-89.318061908012","","3841 East Washington Ave"
"utC9M5BetVY6GECRyZeLEw","Maharana Indian Restaurant","FALSE","https://www.yelp.com/biz/maharana-indian-restaurant-madison?adjust_creative=QNZpjiWMh-xtTiixb79gYw&utm_campaign=yelp_api_v3&utm_medium=api_v3_business_search&utm_source=QNZpjiWMh-xtTiixb79gYw","91","Indian | Soup | Seafood","4","43.12225","-89.31129","$$","1707 Theirer Rd"
"eI1n8YoS2xKCCpkLQp-CYA","Journey Sushi & Seafood Buffet","FALSE","https://www.yelp.com/biz/journey-sushi-and-seafood-buffet-madison?adjust_creative=QNZpjiWMh-xtTiixb79gYw&utm_campaign=yelp_api_v3&utm_medium=api_v3_business_search&utm_source=QNZpjiWMh-xtTiixb79gYw","184","Sushi Bars | Buffets | Seafood","3.5","43.120559","-89.305994","$$","4325 Lien Rd"
"aS4t4ee3xqQXgNHNxi9gAA","Flaming Wok","FALSE","https://www.yelp.com/biz/flaming-wok-madison?adjust_creative=QNZpjiWMh-xtTiixb79gYw&utm_campaign=yelp_api_v3&utm_medium=api_v3_business_search&utm_source=QNZpjiWMh-xtTiixb79gYw","70","Chinese | Noodles","3.5","43.12057","-89.30837","$","4237 Lien Rd"
"EWcCj1D3K1NnEgYD_LjgDQ","Cool Beans Coffee Cafe","FALSE","https://www.yelp.com/biz/cool-beans-coffee-cafe-madison?adjust_creative=QNZpjiWMh-xtTiixb79gYw&utm_campaign=yelp_api_v3&utm_medium=api_v3_business_search&utm_source=QNZpjiWMh-xtTiixb79gYw","66","Coffee & Tea | Cafes","4.5","43.1241565","-89.3086549","$","1748 Eagan Rd"
"VYpXvGPkx2k0lZlGry3HQw","Coach's Club","FALSE","https://www.yelp.com/biz/coachs-club-cross-plains?adjust_creative=QNZpjiWMh-xtTiixb79gYw&utm_campaign=yelp_api_v3&utm_medium=api_v3_business_search&utm_source=QNZpjiWMh-xtTiixb79gYw","23","Sports Bars | Breakfast & Brunch | American (Traditional)","3.5","43.11416","-89.65857","$$","1200 Main St"
"RCfpKRSP5o04gdzy7Vhnqw","Hooty's Bar & Grill","FALSE","https://www.yelp.com/biz/hootys-bar-and-grill-cross-plains?adjust_creative=QNZpjiWMh-xtTiixb79gYw&utm_campaign=yelp_api_v3&utm_medium=api_v3_business_search&utm_source=QNZpjiWMh-xtTiixb79gYw","4","American (New) | Burgers | Sandwiches","4.5","43.1140164633627","-89.6505199000239","$","1821 Main St"
"OKGfGPx3AJOw6ohrIXM-yg","Tano's Pizza","FALSE","https://www.yelp.com/biz/tanos-pizza-cross-plains-2?adjust_creative=QNZpjiWMh-xtTiixb79gYw&utm_campaign=yelp_api_v3&utm_medium=api_v3_business_search&utm_source=QNZpjiWMh-xtTiixb79gYw","23","Pizza","3.5","43.11341","-89.64988","$","1910 Main St"
"4lHIz3Z-6lAICc_1wq25-A","General Tso's Chinese Food","FALSE","https://www.yelp.com/biz/general-tsos-chinese-food-cross-plains-2?adjust_creative=QNZpjiWMh-xtTiixb79gYw&utm_campaign=yelp_api_v3&utm_medium=api_v3_business_search&utm_source=QNZpjiWMh-xtTiixb79gYw","6","Chinese","3","43.1109979748726","-89.6422784775496","$","30 Glacier Edge Sq"
"EgbWvXVyExSqcFx9r7fZug","Culver's","FALSE","https://www.yelp.com/biz/culvers-cross-plains-2?adjust_creative=QNZpjiWMh-xtTiixb79gYw&utm_campaign=yelp_api_v3&utm_medium=api_v3_business_search&utm_source=QNZpjiWMh-xtTiixb79gYw","15","Burgers | Fast Food | Ice Cream & Frozen Yogurt","3.5","43.11136","-89.6442","$","2523 Main St"
"mZ3l8RpwszlVAKDu7lWEmg","Red's Pizza","FALSE","https://www.yelp.com/biz/reds-pizza-middleton?adjust_creative=QNZpjiWMh-xtTiixb79gYw&utm_campaign=yelp_api_v3&utm_medium=api_v3_business_search&utm_source=QNZpjiWMh-xtTiixb79gYw","5","Pizza","3.5","43.1110709","-89.5093451","","3301 Parmenter St"
"oglIZt5mg2nErhpTH_AakQ","Cafe La Bellitalia","FALSE","https://www.yelp.com/biz/cafe-la-bellitalia-madison?adjust_creative=QNZpjiWMh-xtTiixb79gYw&utm_campaign=yelp_api_v3&utm_medium=api_v3_business_search&utm_source=QNZpjiWMh-xtTiixb79gYw","110","Italian | Pizza","4","43.1113142621797","-89.3640175794064","$$","1026 N Sherman Ave"
"nTj1Yi5TyRErrP8k8H3C3g","Kavanaugh's Esquire Club","FALSE","https://www.yelp.com/biz/kavanaughs-esquire-club-madison?adjust_creative=QNZpjiWMh-xtTiixb79gYw&utm_campaign=yelp_api_v3&utm_medium=api_v3_business_search&utm_source=QNZpjiWMh-xtTiixb79gYw","56","Steakhouses | Sports Bars | Seafood","3","43.111265","-89.363442","$$","1025 N Sherman Ave"
"htHxROgh_Q6-0wi-od_a9Q","Madtown Chicken N' Fish","FALSE","https://www.yelp.com/biz/madtown-chicken-n-fish-madison?adjust_creative=QNZpjiWMh-xtTiixb79gYw&utm_campaign=yelp_api_v3&utm_medium=api_v3_business_search&utm_source=QNZpjiWMh-xtTiixb79gYw","3","Chicken Shop | Fish & Chips | Seafood","4","43.1118499","-89.3634299","$$","1101 N Sherman Ave"
"bObysWCWZqc_rqSC0U83Yg","Falbo Bros. Pizzeria","FALSE","https://www.yelp.com/biz/falbo-bros-pizzeria-madison-5?adjust_creative=QNZpjiWMh-xtTiixb79gYw&utm_campaign=yelp_api_v3&utm_medium=api_v3_business_search&utm_source=QNZpjiWMh-xtTiixb79gYw","14","Pizza","2.5","43.1127283309185","-89.3620204925537","$$$$","1207 N Sherman Ave"
"oEEgGprlMPgWzAdJWaq42g","The Lockeroom Bar and Grill","FALSE","https://www.yelp.com/biz/the-lockeroom-bar-and-grill-madison?adjust_creative=QNZpjiWMh-xtTiixb79gYw&utm_campaign=yelp_api_v3&utm_medium=api_v3_business_search&utm_source=QNZpjiWMh-xtTiixb79gYw","2","Sports Bars | American (Traditional)","3","43.111599","-89.3599014","$","1810 Roth St"
"35f1ztouVmQYUqHpO7bHZw","Plata's Restaurant at Bridges Golf Course","FALSE","https://www.yelp.com/biz/platas-restaurant-at-bridges-golf-course-madison-3?adjust_creative=QNZpjiWMh-xtTiixb79gYw&utm_campaign=yelp_api_v3&utm_medium=api_v3_business_search&utm_source=QNZpjiWMh-xtTiixb79gYw","2","Bars | American (Traditional) | Fish & Chips","4","43.1124191","-89.34478","$$","2702 Shopko Dr"
"RGLC87HVaASIYLxh2RL4hg","OM Indian Fusion Cuisine","FALSE","https://www.yelp.com/biz/om-indian-fusion-cuisine-madison?adjust_creative=QNZpjiWMh-xtTiixb79gYw&utm_campaign=yelp_api_v3&utm_medium=api_v3_business_search&utm_source=QNZpjiWMh-xtTiixb79gYw","120","Indian | Vegetarian | Asian Fusion","4","43.115797","-89.324887","$$","3579 E Washington Ave"
"-uVn3ww87bzHYgjjPazzDw","La Nena","FALSE","https://www.yelp.com/biz/la-nena-madison?adjust_creative=QNZpjiWMh-xtTiixb79gYw&utm_campaign=yelp_api_v3&utm_medium=api_v3_business_search&utm_source=QNZpjiWMh-xtTiixb79gYw","1","Mexican","4","43.1148333249486","-89.3271619547394","$","3559 E Washington Ave"
"sPd3E7lFzd_yooiq-ekxtQ","Pedro's Mexican Restaurante","FALSE","https://www.yelp.com/biz/pedros-mexican-restaurante-madison?adjust_creative=QNZpjiWMh-xtTiixb79gYw&utm_campaign=yelp_api_v3&utm_medium=api_v3_business_search&utm_source=QNZpjiWMh-xtTiixb79gYw","100","Mexican | Bars | Tex-Mex","2.5","43.114642","-89.325544","$$","3555 E Washington Ave"
"nExB69iAfGIPhZu9V1Gdsg","Subway","FALSE","https://www.yelp.com/biz/subway-madison-28?adjust_creative=QNZpjiWMh-xtTiixb79gYw&utm_campaign=yelp_api_v3&utm_medium=api_v3_business_search&utm_source=QNZpjiWMh-xtTiixb79gYw","2","Sandwiches | Fast Food","2.5","43.11084","-89.31271","","4198 Nakoosa Trl"
"lXE09qNzIeqgVLJGsylEXg","Lupe's Taqueria","FALSE","https://www.yelp.com/biz/lupes-taqueria-middleton?adjust_creative=QNZpjiWMh-xtTiixb79gYw&utm_campaign=yelp_api_v3&utm_medium=api_v3_business_search&utm_source=QNZpjiWMh-xtTiixb79gYw","56","Mexican","4","43.10701","-89.49771","$","6719 Frank Lloyd Wright Blvd"
"pP2t4yG5W_3x_r3ee9h-kQ","Craftsman Table & Tap","FALSE","https://www.yelp.com/biz/craftsman-table-and-tap-middleton?adjust_creative=QNZpjiWMh-xtTiixb79gYw&utm_campaign=yelp_api_v3&utm_medium=api_v3_business_search&utm_source=QNZpjiWMh-xtTiixb79gYw","188","Gastropubs | American (Traditional)","3.5","43.106774","-89.4977379","$$","6712 Frank Lloyd Wright Ave"
"W1vydY_gBcNQVsOGlkdtDA","Pizza Brutta","FALSE","https://www.yelp.com/biz/pizza-brutta-middleton?adjust_creative=QNZpjiWMh-xtTiixb79gYw&utm_campaign=yelp_api_v3&utm_medium=api_v3_business_search&utm_source=QNZpjiWMh-xtTiixb79gYw","32","Pizza","4","43.1066633","-89.4977291","$$","6712 Frank Lloyd Wright Ave"
"q_IrYzYP89MUq-18oedTJg","Jet's Pizza","FALSE","https://www.yelp.com/biz/jets-pizza-middleton?adjust_creative=QNZpjiWMh-xtTiixb79gYw&utm_campaign=yelp_api_v3&utm_medium=api_v3_business_search&utm_source=QNZpjiWMh-xtTiixb79gYw","19","Pizza","4.5","43.1053799","-89.5101","$$","2831 Parmenter St"
"ZrHU8ZzwZQjTRpB1K_8JTQ","1847 At the Stamm House","FALSE","https://www.yelp.com/biz/1847-at-the-stamm-house-middleton?adjust_creative=QNZpjiWMh-xtTiixb79gYw&utm_campaign=yelp_api_v3&utm_medium=api_v3_business_search&utm_source=QNZpjiWMh-xtTiixb79gYw","110","Supper Clubs | American (Traditional) | Gastropubs","4","43.10421","-89.4947399","$$","6625 Century Ave"
"Uj77Cm-azkhW-F-vMIBbfg","Taqueria Gonzalez","FALSE","https://www.yelp.com/biz/taqueria-gonzalez-middleton-2?adjust_creative=QNZpjiWMh-xtTiixb79gYw&utm_campaign=yelp_api_v3&utm_medium=api_v3_business_search&utm_source=QNZpjiWMh-xtTiixb79gYw","47","Mexican | International Grocery","4","43.1035495","-89.4864793","$","2606 Allen Blvd"
"a2WtA_9HkxKe7OJ7NVA0dQ","Common Ground Middleton","FALSE","https://www.yelp.com/biz/common-ground-middleton-middleton?adjust_creative=QNZpjiWMh-xtTiixb79gYw&utm_campaign=yelp_api_v3&utm_medium=api_v3_business_search&utm_source=QNZpjiWMh-xtTiixb79gYw","7","Cafes | Venues & Event Spaces","5","43.10376","-89.4933099","","2644 Branch St"
"sEA78pHMsVhvQQI8rPksUg","Mid Town Pub","FALSE","https://www.yelp.com/biz/mid-town-pub-middleton?adjust_creative=QNZpjiWMh-xtTiixb79gYw&utm_campaign=yelp_api_v3&utm_medium=api_v3_business_search&utm_source=QNZpjiWMh-xtTiixb79gYw","72","American (Traditional) | Sports Bars","4","43.10167","-89.4855199","$$","2405 Allen Blvd"
"NblDm3wwmniqsAgedLSTwA","Captain Bill's","FALSE","https://www.yelp.com/biz/captain-bills-middleton?adjust_creative=QNZpjiWMh-xtTiixb79gYw&utm_campaign=yelp_api_v3&utm_medium=api_v3_business_search&utm_source=QNZpjiWMh-xtTiixb79gYw","86","Seafood","3","43.104118347168","-89.4850463867188","$$","2701 Century Harbor Rd"
"zv7ApWWtKbu1r_qNK4SFrg","Gino's Italian Deli","FALSE","https://www.yelp.com/biz/ginos-italian-deli-middleton-2?adjust_creative=QNZpjiWMh-xtTiixb79gYw&utm_campaign=yelp_api_v3&utm_medium=api_v3_business_search&utm_source=QNZpjiWMh-xtTiixb79gYw","8","Delis | Italian","5","43.1038884255072","-89.491757293314","$","6509 Century Ave"
"27nh-2hNnNkf2dBk9aeKHQ","C's Restaurant Bakery and Coffee Shop","FALSE","https://www.yelp.com/biz/cs-restaurant-bakery-and-coffee-shop-middleton?adjust_creative=QNZpjiWMh-xtTiixb79gYw&utm_campaign=yelp_api_v3&utm_medium=api_v3_business_search&utm_source=QNZpjiWMh-xtTiixb79gYw","42","Bakeries | Donuts | American (Traditional)","4","43.1029","-89.48674","$","2550 Allen Blvd"
"DQlhAbDfxdplyTSvA2Hg4A","Cocina Real","FALSE","https://www.yelp.com/biz/cocina-real-middleton?adjust_creative=QNZpjiWMh-xtTiixb79gYw&utm_campaign=yelp_api_v3&utm_medium=api_v3_business_search&utm_source=QNZpjiWMh-xtTiixb79gYw","41","Mexican","3","43.1010584","-89.4864115","$$","2518 Allen Blvd"
"4U53QybENiCcwD1zD5THkg","Bristled Boar Saloon & Grill","FALSE","https://www.yelp.com/biz/bristled-boar-saloon-and-grill-middleton?adjust_creative=QNZpjiWMh-xtTiixb79gYw&utm_campaign=yelp_api_v3&utm_medium=api_v3_business_search&utm_source=QNZpjiWMh-xtTiixb79gYw","29","Bars | American (Traditional)","3.5","43.1031875610352","-89.4924240112305","$","2611 Branch St"
"C16dsL_IEOb5UzRWYhxiKw","Grand China Restaurant","FALSE","https://www.yelp.com/biz/grand-china-restaurant-middleton?adjust_creative=QNZpjiWMh-xtTiixb79gYw&utm_campaign=yelp_api_v3&utm_medium=api_v3_business_search&utm_source=QNZpjiWMh-xtTiixb79gYw","16","Chinese","4","43.1033737957478","-89.4864743202925","$","2608 Allen Blvd"
"pmkqmJHvl09o6NoBP4d_TQ","McDonald's","FALSE","https://www.yelp.com/biz/mcdonalds-middleton-2?adjust_creative=QNZpjiWMh-xtTiixb79gYw&utm_campaign=yelp_api_v3&utm_medium=api_v3_business_search&utm_source=QNZpjiWMh-xtTiixb79gYw","1","Fast Food | Burgers | Coffee & Tea","5","43.1038969304431","-89.4872742891312","","2626 Allen Blvd"
"bvFq5igEVGc9UAP3IVfYFA","Subway","FALSE","https://www.yelp.com/biz/subway-middleton-4?adjust_creative=QNZpjiWMh-xtTiixb79gYw&utm_campaign=yelp_api_v3&utm_medium=api_v3_business_search&utm_source=QNZpjiWMh-xtTiixb79gYw","3","Sandwiches | Fast Food","3","43.1034507751465","-89.4870452880859","$","2602 Allen Blvd"
"DEF77d-_S0UT2OI-njM5fQ","Bear & Bottle","FALSE","https://www.yelp.com/biz/bear-and-bottle-madison-2?adjust_creative=QNZpjiWMh-xtTiixb79gYw&utm_campaign=yelp_api_v3&utm_medium=api_v3_business_search&utm_source=QNZpjiWMh-xtTiixb79gYw","101","Pubs | Tacos | Sandwiches","3.5","43.1071","-89.36322","$$","601 N Sherman Ave"
"ILa-Xv5-h23A9OMrYK17oQ","Manna Cafe & Bakery","FALSE","https://www.yelp.com/biz/manna-cafe-and-bakery-madison?adjust_creative=QNZpjiWMh-xtTiixb79gYw&utm_campaign=yelp_api_v3&utm_medium=api_v3_business_search&utm_source=QNZpjiWMh-xtTiixb79gYw","201","Bakeries | Breakfast & Brunch | Cafes","4","43.107431","-89.3636588","$$","611 N Sherman Ave"
"HNW4P0jAhXYRJ_op7OcWCw","Great China","FALSE","https://www.yelp.com/biz/great-china-madison?adjust_creative=QNZpjiWMh-xtTiixb79gYw&utm_campaign=yelp_api_v3&utm_medium=api_v3_business_search&utm_source=QNZpjiWMh-xtTiixb79gYw","25","Chinese","2.5","43.1079985946417","-89.3638095259666","$","619 N Sherman Ave"
"YcRaEZaqXmrBjDYjGIHYvg","Jacobson Bros Meats & Deli","FALSE","https://www.yelp.com/biz/jacobson-bros-meats-and-deli-madison?adjust_creative=QNZpjiWMh-xtTiixb79gYw&utm_campaign=yelp_api_v3&utm_medium=api_v3_business_search&utm_source=QNZpjiWMh-xtTiixb79gYw","5","Delis","3","43.1077309","-89.3632889","$","617 N Sherman Ave"
"UAGZsl9ul16iDHmFNDLj4A","Slice's Bar & Grill","FALSE","https://www.yelp.com/biz/slices-bar-and-grill-madison?adjust_creative=QNZpjiWMh-xtTiixb79gYw&utm_campaign=yelp_api_v3&utm_medium=api_v3_business_search&utm_source=QNZpjiWMh-xtTiixb79gYw","14","Dive Bars | American (Traditional)","3.5","43.104434967041","-89.3579788208008","$","2417 Pennsylvania Ave"
"TQSgOs4gahJ9g8Y_-whMsQ","Ogden's North Street Diner","FALSE","https://www.yelp.com/biz/ogdens-north-street-diner-madison?adjust_creative=QNZpjiWMh-xtTiixb79gYw&utm_campaign=yelp_api_v3&utm_medium=api_v3_business_search&utm_source=QNZpjiWMh-xtTiixb79gYw","47","Diners | Breakfast & Brunch","4.5","43.10665","-89.35161","$$","560 North St"
"eYE7zd30ltLAS1V3ssdtrQ","Tip Top Tavern","FALSE","https://www.yelp.com/biz/tip-top-tavern-madison?adjust_creative=QNZpjiWMh-xtTiixb79gYw&utm_campaign=yelp_api_v3&utm_medium=api_v3_business_search&utm_source=QNZpjiWMh-xtTiixb79gYw","95","American (New) | Pubs","4","43.107164","-89.351047","$$","601 N North St"
"9w_saPQbfOaqrKe5lJQ74A","People's Bakery","FALSE","https://www.yelp.com/biz/peoples-bakery-madison-11?adjust_creative=QNZpjiWMh-xtTiixb79gYw&utm_campaign=yelp_api_v3&utm_medium=api_v3_business_search&utm_source=QNZpjiWMh-xtTiixb79gYw","73","Bakeries | Mediterranean | Lebanese","4","43.10294","-89.34595","$","2810 E Washington Ave"
"Wtp0Pfnhd7NvUIEawiIjTA","Dexter's Pub","FALSE","https://www.yelp.com/biz/dexters-pub-madison?adjust_creative=QNZpjiWMh-xtTiixb79gYw&utm_campaign=yelp_api_v3&utm_medium=api_v3_business_search&utm_source=QNZpjiWMh-xtTiixb79gYw","117","Pubs | American (Traditional)","4","43.10348","-89.3502199","$$","301 North St"
"nzUA0vgcta7OPwpWPbe7Ug","Crostini Sandwiches","FALSE","https://www.yelp.com/biz/crostini-sandwiches-madison?adjust_creative=QNZpjiWMh-xtTiixb79gYw&utm_campaign=yelp_api_v3&utm_medium=api_v3_business_search&utm_source=QNZpjiWMh-xtTiixb79gYw","78","Sandwiches | Gluten-Free | Salad","4","43.10295","-89.3498199","$","231 North St"
"p5LmGtCNBI74xmwhSmyo8Q","Jade Mountain Tea Company","FALSE","https://www.yelp.com/biz/jade-mountain-tea-company-madison-7?adjust_creative=QNZpjiWMh-xtTiixb79gYw&utm_campaign=yelp_api_v3&utm_medium=api_v3_business_search&utm_source=QNZpjiWMh-xtTiixb79gYw","103","Bubble Tea | Taiwanese","4.5","43.102963","-89.349804","$","2611 E Johnson St"
"GUDAci6mYcN01OzotlSytQ","Kingdom Restaurant","FALSE","https://www.yelp.com/biz/kingdom-restaurant-madison?adjust_creative=QNZpjiWMh-xtTiixb79gYw&utm_campaign=yelp_api_v3&utm_medium=api_v3_business_search&utm_source=QNZpjiWMh-xtTiixb79gYw","1","African | American (New) | Mediterranean","5","43.1024103003033","-89.3472153693438","","2702 E Washington Ave"
"dcfh1BEj4EXKqA16zi0TiA","McDonald's","FALSE","https://www.yelp.com/biz/mcdonalds-madison-53?adjust_creative=QNZpjiWMh-xtTiixb79gYw&utm_campaign=yelp_api_v3&utm_medium=api_v3_business_search&utm_source=QNZpjiWMh-xtTiixb79gYw","4","Fast Food | Burgers | Coffee & Tea","1","43.1020816825936","-89.3459849134888","","2733 E Washington Ave"
"eZkD1yUKQA6mAfBJTJPD6w","Little Caesars Pizza","FALSE","https://www.yelp.com/biz/little-caesars-pizza-madison-2?adjust_creative=QNZpjiWMh-xtTiixb79gYw&utm_campaign=yelp_api_v3&utm_medium=api_v3_business_search&utm_source=QNZpjiWMh-xtTiixb79gYw","7","Pizza","2.5","43.10202","-89.3456","$","2833 E Washington Ave"
"B0KLBjiTkR4gz-fYDYv13A","Brothers Three Bar & Grill","FALSE","https://www.yelp.com/biz/brothers-three-bar-and-grill-madison-2?adjust_creative=QNZpjiWMh-xtTiixb79gYw&utm_campaign=yelp_api_v3&utm_medium=api_v3_business_search&utm_source=QNZpjiWMh-xtTiixb79gYw","64","Burgers | American (Traditional) | Bars","4","43.107292175293","-89.3309707641602","$","614 N Fair Oaks Ave"
"lMeWUHAkBUXwcuX1tGTdtw","Eagle Crest Bar","FALSE","https://www.yelp.com/biz/eagle-crest-bar-madison?adjust_creative=QNZpjiWMh-xtTiixb79gYw&utm_campaign=yelp_api_v3&utm_medium=api_v3_business_search&utm_source=QNZpjiWMh-xtTiixb79gYw","16","Dive Bars | Burgers","3.5","43.1070277512392","-89.2873446107625","$","3710 County Rd T"
"Qn2uD06olrxL_43_4G_Hqg","Rosati's Authentic Chicago Pizza","FALSE","https://www.yelp.com/biz/rosatis-authentic-chicago-pizza-madison?adjust_creative=QNZpjiWMh-xtTiixb79gYw&utm_campaign=yelp_api_v3&utm_medium=api_v3_business_search&utm_source=QNZpjiWMh-xtTiixb79gYw","20","Pizza","3","43.1055563605608","-89.2966957014282","$$","4933 Commercial Ave"
"5Y-p9QJLrg2P0I8RjJ9TTQ","Chang Jiang","FALSE","https://www.yelp.com/biz/chang-jiang-madison?adjust_creative=QNZpjiWMh-xtTiixb79gYw&utm_campaign=yelp_api_v3&utm_medium=api_v3_business_search&utm_source=QNZpjiWMh-xtTiixb79gYw","9","Chinese","3","43.1056341465258","-89.2967010738709","$","4929 Commercial Ave"
"XxgdiF-1-YIU5FIfC6PhIg","Milio's Sandwiches","FALSE","https://www.yelp.com/biz/milios-sandwiches-madison-3?adjust_creative=QNZpjiWMh-xtTiixb79gYw&utm_campaign=yelp_api_v3&utm_medium=api_v3_business_search&utm_source=QNZpjiWMh-xtTiixb79gYw","1","Sandwiches","2","43.10577","-89.298","","4905 Commercial Ave"
"TiPk-P69U5_E-6xQiEdGwQ","Culver's","FALSE","https://www.yelp.com/biz/culvers-cottage-grove-2?adjust_creative=QNZpjiWMh-xtTiixb79gYw&utm_campaign=yelp_api_v3&utm_medium=api_v3_business_search&utm_source=QNZpjiWMh-xtTiixb79gYw","5","Ice Cream & Frozen Yogurt | Fast Food | Burgers","5","43.1048914375571","-89.1971153239145","","1599 Landmark Dr"
"S3rh8kEJ8daGYPNRaVf-OA","Arby's","FALSE","https://www.yelp.com/biz/arbys-cottage-grove?adjust_creative=QNZpjiWMh-xtTiixb79gYw&utm_campaign=yelp_api_v3&utm_medium=api_v3_business_search&utm_source=QNZpjiWMh-xtTiixb79gYw","2","Fast Food | Sandwiches","3","43.10554","-89.19854","","1603 Landmark Dr"
"6okGKL2PA7kkc-GjZzNHnA","Johnny's Italian Steakhouse","FALSE","https://www.yelp.com/biz/johnnys-italian-steakhouse-middleton?adjust_creative=QNZpjiWMh-xtTiixb79gYw&utm_campaign=yelp_api_v3&utm_medium=api_v3_business_search&utm_source=QNZpjiWMh-xtTiixb79gYw","183","Italian | Steakhouses","3.5","43.0936470031738","-89.5266799926758","$$","8390 Market St"
"oJQTaE-0pyDly6z0T05wxA","Compadres Mexican Restaurant","FALSE","https://www.yelp.com/biz/compadres-mexican-restaurant-middleton-2?adjust_creative=QNZpjiWMh-xtTiixb79gYw&utm_campaign=yelp_api_v3&utm_medium=api_v3_business_search&utm_source=QNZpjiWMh-xtTiixb79gYw","94","Bars | Mexican","4.5","43.0961260241632","-89.5146005353593","$$","1900 Cayuga St"
"x0LohgBoD53hIa3BMM00PQ","The Free House Pub","FALSE","https://www.yelp.com/biz/the-free-house-pub-middleton?adjust_creative=QNZpjiWMh-xtTiixb79gYw&utm_campaign=yelp_api_v3&utm_medium=api_v3_business_search&utm_source=QNZpjiWMh-xtTiixb79gYw","156","Pubs | American (Traditional)","4","43.096159","-89.511939","$$","1902 Parmenter St"
"-kOAY_7PlNBzezdo6jNvqw","Longtable Beer Cafe","FALSE","https://www.yelp.com/biz/longtable-beer-cafe-middleton?adjust_creative=QNZpjiWMh-xtTiixb79gYw&utm_campaign=yelp_api_v3&utm_medium=api_v3_business_search&utm_source=QNZpjiWMh-xtTiixb79gYw","38","Beer Bar | American (New)","3.5","43.0954196778299","-89.5121345164557","$$","7545 Hubbard Ave"
"OgwN65jZebPRIPSmNpRP7A","Taigu","FALSE","https://www.yelp.com/biz/taigu-middleton-3?adjust_creative=QNZpjiWMh-xtTiixb79gYw&utm_campaign=yelp_api_v3&utm_medium=api_v3_business_search&utm_source=QNZpjiWMh-xtTiixb79gYw","104","Chinese | Noodles","4","43.09636","-89.51373","$$","7610 Elmwood Ave"
"CbI4IFtWCNm4rLvWr0veEw","Villa Dolce Cafe","FALSE","https://www.yelp.com/biz/villa-dolce-cafe-middleton?adjust_creative=QNZpjiWMh-xtTiixb79gYw&utm_campaign=yelp_api_v3&utm_medium=api_v3_business_search&utm_source=QNZpjiWMh-xtTiixb79gYw","93","Italian | Pizza | Gelato","4","43.0956239943755","-89.5117448782918","$$","1828 Parmenter St"
"uMZxxZrbM441LnnfqR1WOQ","The Village Green Bar & Grill","FALSE","https://www.yelp.com/biz/the-village-green-bar-and-grill-middleton?adjust_creative=QNZpjiWMh-xtTiixb79gYw&utm_campaign=yelp_api_v3&utm_medium=api_v3_business_search&utm_source=QNZpjiWMh-xtTiixb79gYw","84","Bars | American (Traditional)","4","43.095724","-89.5120419","$","7508 Hubbard Ave"
"9ismhhkIPREHOo8tJi0ETA","Ruth's Chris Steak House","FALSE","https://www.yelp.com/biz/ruths-chris-steak-house-middleton?adjust_creative=QNZpjiWMh-xtTiixb79gYw&utm_campaign=yelp_api_v3&utm_medium=api_v3_business_search&utm_source=QNZpjiWMh-xtTiixb79gYw","99","Steakhouses","3.5","43.0976799","-89.52293","$$$","2137 Deming Way"
"PV9CdNFDOX4_zWm3Sy3W8g","Quaker Steak & Lube","FALSE","https://www.yelp.com/biz/quaker-steak-and-lube-middleton?adjust_creative=QNZpjiWMh-xtTiixb79gYw&utm_campaign=yelp_api_v3&utm_medium=api_v3_business_search&utm_source=QNZpjiWMh-xtTiixb79gYw","136","American (Traditional) | Chicken Wings | Steakhouses","3","43.0980569321729","-89.5192287862301","$$","2259 Deming Way"
"VUbACJQR-_dVwyPYMFSodg","Takara 88","FALSE","https://www.yelp.com/biz/takara-88-middleton-2?adjust_creative=QNZpjiWMh-xtTiixb79gYw&utm_campaign=yelp_api_v3&utm_medium=api_v3_business_search&utm_source=QNZpjiWMh-xtTiixb79gYw","60","Japanese | Sushi Bars","4","43.09634","-89.51496","$$","1900 Cayuga St"
"HxC7kYHEVO-GKHvDoeI2RQ","K Peppers","FALSE","https://www.yelp.com/biz/k-peppers-middleton?adjust_creative=QNZpjiWMh-xtTiixb79gYw&utm_campaign=yelp_api_v3&utm_medium=api_v3_business_search&utm_source=QNZpjiWMh-xtTiixb79gYw","105","Asian Fusion | Korean","3.5","43.0962004007281","-89.513694580233","$$","1901 Cayuga St"
"imks3kk22agRE-N2BRkH1w","Monk's Bar & Grill - Middleton","FALSE","https://www.yelp.com/biz/monks-bar-and-grill-middleton-middleton?adjust_creative=QNZpjiWMh-xtTiixb79gYw&utm_campaign=yelp_api_v3&utm_medium=api_v3_business_search&utm_source=QNZpjiWMh-xtTiixb79gYw","67","Sports Bars | American (Traditional)","3.5","43.09763","-89.52424","$$","8313 Murphy Dr"
"VKNwgZGroTNHcPqgRtmcpA","P.F. Chang's","FALSE","https://www.yelp.com/biz/p-f-changs-middleton-17?adjust_creative=QNZpjiWMh-xtTiixb79gYw&utm_campaign=yelp_api_v3&utm_medium=api_v3_business_search&utm_source=QNZpjiWMh-xtTiixb79gYw","99","Chinese | Asian Fusion","2.5","43.09756","-89.51993","$$","2237 Deming Way"
"u11_SkpIgbVmb3d2suTbmQ","Which Wich","FALSE","https://www.yelp.com/biz/which-wich-middleton?adjust_creative=QNZpjiWMh-xtTiixb79gYw&utm_campaign=yelp_api_v3&utm_medium=api_v3_business_search&utm_source=QNZpjiWMh-xtTiixb79gYw","37","Sandwiches","3.5","43.0979262292385","-89.5232212543488","$","2177 Deming Way"
"2jau7OtoplE60-o2TIn6Tg","Roman Candle Pizzeria","FALSE","https://www.yelp.com/biz/roman-candle-pizzeria-middleton?adjust_creative=QNZpjiWMh-xtTiixb79gYw&utm_campaign=yelp_api_v3&utm_medium=api_v3_business_search&utm_source=QNZpjiWMh-xtTiixb79gYw","88","Pizza","3.5","43.09671","-89.51191","$$","1920 Parmenter St"
"-i_SmxvRpzybd9PG6qFMbg","Hardee's","FALSE","https://www.yelp.com/biz/hardees-middleton?adjust_creative=QNZpjiWMh-xtTiixb79gYw&utm_campaign=yelp_api_v3&utm_medium=api_v3_business_search&utm_source=QNZpjiWMh-xtTiixb79gYw","8","Fast Food | American (Traditional)","4","43.097234","-89.51658","$","3311 W Beltline Hwy"
"GVZ2AxHFdGhbFyU-XByScg","Hody Bar & Grill","FALSE","https://www.yelp.com/biz/hody-bar-and-grill-middleton?adjust_creative=QNZpjiWMh-xtTiixb79gYw&utm_campaign=yelp_api_v3&utm_medium=api_v3_business_search&utm_source=QNZpjiWMh-xtTiixb79gYw","22","Bars | American (Traditional) | Music Venues","2","43.0961529","-89.5129833","$","1914 Aurora St"
"2J0mx9CAcP01RpwQkdBcGw","Taco Bell","FALSE","https://www.yelp.com/biz/taco-bell-middleton-3?adjust_creative=QNZpjiWMh-xtTiixb79gYw&utm_campaign=yelp_api_v3&utm_medium=api_v3_business_search&utm_source=QNZpjiWMh-xtTiixb79gYw","12","Mexican | Tex-Mex | Fast Food","2.5","43.097517","-89.522062","$","2169 Deming Way"
"0KAymG3_wbiUMxKMpWCZXA","Viviani's Catering Service","FALSE","https://www.yelp.com/biz/vivianis-catering-service-middleton?adjust_creative=QNZpjiWMh-xtTiixb79gYw&utm_campaign=yelp_api_v3&utm_medium=api_v3_business_search&utm_source=QNZpjiWMh-xtTiixb79gYw","1","Restaurants","5","43.0958099","-89.5118179","$","1850 Parmenter St"
"9gJjV1uydmM6ncehYn159g","Amber Indian Cuisine","FALSE","https://www.yelp.com/biz/amber-indian-cuisine-middleton?adjust_creative=QNZpjiWMh-xtTiixb79gYw&utm_campaign=yelp_api_v3&utm_medium=api_v3_business_search&utm_source=QNZpjiWMh-xtTiixb79gYw","98","Indian | Buffets","4","43.0965982657197","-89.5009513583232","$$","6913 University Ave"
"qlYEn2ANcY-x-2IwgOD91g","Willy Street Co-op - West","FALSE","https://www.yelp.com/biz/willy-street-co-op-west-middleton-14?adjust_creative=QNZpjiWMh-xtTiixb79gYw&utm_campaign=yelp_api_v3&utm_medium=api_v3_business_search&utm_source=QNZpjiWMh-xtTiixb79gYw","48","Grocery | Bakeries | Delis","4","43.096625819115","-89.500350439158","$$","6825 University Ave"
"JRlNQwZbV72kQdFz5YX4TA","Middleton Sport Bowl","FALSE","https://www.yelp.com/biz/middleton-sport-bowl-middleton?adjust_creative=QNZpjiWMh-xtTiixb79gYw&utm_campaign=yelp_api_v3&utm_medium=api_v3_business_search&utm_source=QNZpjiWMh-xtTiixb79gYw","19","Bowling | American (Traditional)","3.5","43.0966987609863","-89.4996185302734","$","6815 University Ave"
"VxwcmqZ56tzPr7ZbLxlhTw","China Wok","FALSE","https://www.yelp.com/biz/china-wok-middleton?adjust_creative=QNZpjiWMh-xtTiixb79gYw&utm_campaign=yelp_api_v3&utm_medium=api_v3_business_search&utm_source=QNZpjiWMh-xtTiixb79gYw","22","Chinese | Seafood | Soup","3","43.0967246412576","-89.4980389997363","$","6771 University Ave"
"cxrmfEWXlkgjB7zocBNkqA","Pizza Hut","FALSE","https://www.yelp.com/biz/pizza-hut-middleton?adjust_creative=QNZpjiWMh-xtTiixb79gYw&utm_campaign=yelp_api_v3&utm_medium=api_v3_business_search&utm_source=QNZpjiWMh-xtTiixb79gYw","5","Pizza | Italian | Chicken Wings","3.5","43.0966949462891","-89.4982681274414","","6771 University Ave"
"iNphZPJ8kjvjUvWK7zXkSA","Domino's Pizza","FALSE","https://www.yelp.com/biz/dominos-pizza-middleton?adjust_creative=QNZpjiWMh-xtTiixb79gYw&utm_campaign=yelp_api_v3&utm_medium=api_v3_business_search&utm_source=QNZpjiWMh-xtTiixb79gYw","9","Pizza | Chicken Wings | Sandwiches","2.5","43.097029030323","-89.5009079575539","$","6915 University Ave"
"uJ423HQp-9yKUXPkiDdYbw","Jimmy John's","FALSE","https://www.yelp.com/biz/jimmy-johns-middleton?adjust_creative=QNZpjiWMh-xtTiixb79gYw&utm_campaign=yelp_api_v3&utm_medium=api_v3_business_search&utm_source=QNZpjiWMh-xtTiixb79gYw","9","Sandwiches | Fast Food | Delis","2.5","43.0966","-89.500716","$","6921 University Ave"
"FFbtmuDwEhg3yy0ZJ1hGDw","Chocolaterian","FALSE","https://www.yelp.com/biz/chocolaterian-middleton?adjust_creative=QNZpjiWMh-xtTiixb79gYw&utm_campaign=yelp_api_v3&utm_medium=api_v3_business_search&utm_source=QNZpjiWMh-xtTiixb79gYw","13","Desserts | Cafes | Breakfast & Brunch","4.5","43.09607","-89.49575","$$","6637 University Ave"
"9e9AW5qdxhWNrK2uhNCkAQ","Club Tavern & Grille","FALSE","https://www.yelp.com/biz/club-tavern-and-grille-middleton?adjust_creative=QNZpjiWMh-xtTiixb79gYw&utm_campaign=yelp_api_v3&utm_medium=api_v3_business_search&utm_source=QNZpjiWMh-xtTiixb79gYw","51","American (New) | Bars","3","43.0968704","-89.4945831","$","1915 Branch St"
"QIZ5gDmTYYWAxiwiRX7OHg","Sonic Drive-In","FALSE","https://www.yelp.com/biz/sonic-drive-in-middleton?adjust_creative=QNZpjiWMh-xtTiixb79gYw&utm_campaign=yelp_api_v3&utm_medium=api_v3_business_search&utm_source=QNZpjiWMh-xtTiixb79gYw","34","Fast Food | Burgers | Ice Cream & Frozen Yogurt","2.5","43.0936041701461","-89.4923885949765","$","6413 University Ave"
"RhlGhQt3owSO3-TXfaUoBQ","Papa John's Pizza","FALSE","https://www.yelp.com/biz/papa-johns-pizza-middleton?adjust_creative=QNZpjiWMh-xtTiixb79gYw&utm_campaign=yelp_api_v3&utm_medium=api_v3_business_search&utm_source=QNZpjiWMh-xtTiixb79gYw","9","Pizza","1.5","43.0956577509642","-89.4946979731321","$$","6615 University Ave"
